{
  "222-2": {
    "routeid": "YCB357000430",
    "type": "지선버스",
    "stops": [
      {
        "id": "570115",
        "name": "금호터미널",
        "lat": 35.93058,
        "lng": 128.869721
      },
      {
        "id": "571766",
        "name": "금호콜마트 건너",
        "lat": 35.931923,
        "lng": 128.872013
      },
      {
        "id": "571486",
        "name": "금호우방타운아파트 건너(청통방면)",
        "lat": 35.933587,
        "lng": 128.871032
      },
      {
        "id": "571228",
        "name": "대평리.장구마을(청통방면)",
        "lat": 35.944495,
        "lng": 128.864419
      },
      {
        "id": "571229",
        "name": "풍락저수지밑건너",
        "lat": 35.945793,
        "lng": 128.863774
      },
      {
        "id": "571230",
        "name": "전륜사",
        "lat": 35.952282,
        "lng": 128.862574
      },
      {
        "id": "571231",
        "name": "대평모텔",
        "lat": 35.957195,
        "lng": 128.864751
      },
      {
        "id": "571232",
        "name": "신덕2리.대평(청통방면)",
        "lat": 35.965534,
        "lng": 128.864434
      },
      {
        "id": "571233",
        "name": "교수마을입구(신덕방면)",
        "lat": 35.96722,
        "lng": 128.862661
      },
      {
        "id": "571234",
        "name": "대평리(신덕방면)",
        "lat": 35.968708,
        "lng": 128.859996
      },
      {
        "id": "571235",
        "name": "신덕2리",
        "lat": 35.972401,
        "lng": 128.855424
      },
      {
        "id": "571236",
        "name": "대평리(금호방면)",
        "lat": 35.968806,
        "lng": 128.859782
      },
      {
        "id": "571237",
        "name": "교수마을입구(금호방면)",
        "lat": 35.967099,
        "lng": 128.862777
      },
      {
        "id": "571238",
        "name": "신덕1리(청통방면)",
        "lat": 35.970807,
        "lng": 128.863681
      },
      {
        "id": "571239",
        "name": "청통면신덕리(청통방면)",
        "lat": 35.975515,
        "lng": 128.863934
      },
      {
        "id": "571240",
        "name": "경안프랜트건너",
        "lat": 35.980024,
        "lng": 128.865015
      },
      {
        "id": "571241",
        "name": "우천(청통방면)",
        "lat": 35.986276,
        "lng": 128.864821
      },
      {
        "id": "571139",
        "name": "우천1리(보건진료소)",
        "lat": 35.987667,
        "lng": 128.861921
      },
      {
        "id": "571140",
        "name": "보성리(목성)",
        "lat": 35.990063,
        "lng": 128.852226
      },
      {
        "id": "571141",
        "name": "부경산업 앞",
        "lat": 35.990808,
        "lng": 128.848025
      },
      {
        "id": "571142",
        "name": "보성농공단지입구",
        "lat": 35.992314,
        "lng": 128.844462
      },
      {
        "id": "571143",
        "name": "보성리(봉수입구)",
        "lat": 35.993981,
        "lng": 128.841207
      },
      {
        "id": "571144",
        "name": "신학2리(청통방면)",
        "lat": 35.994269,
        "lng": 128.828507
      },
      {
        "id": "571145",
        "name": "청통초등학교건너",
        "lat": 35.994919,
        "lng": 128.826398
      },
      {
        "id": "571160",
        "name": "애련입구(은해사방면)",
        "lat": 35.99568,
        "lng": 128.818524
      },
      {
        "id": "571161",
        "name": "청통CC입구건너",
        "lat": 35.994874,
        "lng": 128.814211
      },
      {
        "id": "571162",
        "name": "장원고시원 입구",
        "lat": 35.994158,
        "lng": 128.810447
      },
      {
        "id": "571163",
        "name": "가톨릭대청통수련원입구건너",
        "lat": 35.993734,
        "lng": 128.80689
      },
      {
        "id": "571164",
        "name": "치일리(은해사방면)",
        "lat": 35.992825,
        "lng": 128.801321
      },
      {
        "id": "571165",
        "name": "은해사(종점)",
        "lat": 35.990831,
        "lng": 128.799194
      },
      {
        "id": "571166",
        "name": "치일리(청통방면)",
        "lat": 35.992765,
        "lng": 128.8014
      },
      {
        "id": "571167",
        "name": "가톨릭대청통수련원입구",
        "lat": 35.993615,
        "lng": 128.806879
      },
      {
        "id": "571168",
        "name": "장원고시원 입구건너",
        "lat": 35.994031,
        "lng": 128.810485
      },
      {
        "id": "571169",
        "name": "청통CC입구",
        "lat": 35.994748,
        "lng": 128.814336
      },
      {
        "id": "571172",
        "name": "신학1리(청통초등학교건너)",
        "lat": 35.994977,
        "lng": 128.820179
      },
      {
        "id": "571173",
        "name": "치일2리(복지타운건너)",
        "lat": 35.991291,
        "lng": 128.822617
      },
      {
        "id": "571174",
        "name": "원촌2리(새마을금고)",
        "lat": 35.989235,
        "lng": 128.823308
      },
      {
        "id": "571175",
        "name": "원촌1리.창마(송천방면)",
        "lat": 35.98484,
        "lng": 128.824059
      },
      {
        "id": "571176",
        "name": "송천리.월성(송천방면)",
        "lat": 35.975678,
        "lng": 128.823283
      },
      {
        "id": "571177",
        "name": "덕산(천일주유소건너)",
        "lat": 35.970633,
        "lng": 128.821748
      },
      {
        "id": "571178",
        "name": "송천리.송천공단(송천방면)",
        "lat": 35.966997,
        "lng": 128.821925
      },
      {
        "id": "710671",
        "name": "청통IC",
        "lat": 35.968179,
        "lng": 128.83044
      },
      {
        "id": "710674",
        "name": "한티재",
        "lat": 35.967968,
        "lng": 128.841962
      },
      {
        "id": "710676",
        "name": "대장골",
        "lat": 35.966023,
        "lng": 128.853357
      },
      {
        "id": "571199",
        "name": "신덕2리.대평(금호방면)",
        "lat": 35.965491,
        "lng": 128.864332
      },
      {
        "id": "571690",
        "name": "대평모텔건너",
        "lat": 35.957332,
        "lng": 128.864621
      },
      {
        "id": "571201",
        "name": "전륜사건너",
        "lat": 35.95206,
        "lng": 128.862336
      },
      {
        "id": "571202",
        "name": "풍락저수지밑",
        "lat": 35.945878,
        "lng": 128.863543
      },
      {
        "id": "571203",
        "name": "대평리.장구마을(금호방면)",
        "lat": 35.944452,
        "lng": 128.86423
      },
      {
        "id": "571485",
        "name": "금호 콜마트",
        "lat": 35.931937,
        "lng": 128.871703
      },
      {
        "id": "570111",
        "name": "금호터미널건너",
        "lat": 35.930631,
        "lng": 128.869384
      }
    ]
  },
  "자양1": {
    "routeid": "YCB357000431",
    "type": "지선버스",
    "stops": [
      {
        "id": "571571",
        "name": "영천터미널",
        "lat": 35.96051,
        "lng": 128.927914
      },
      {
        "id": "570002",
        "name": "손한방병원",
        "lat": 35.962351,
        "lng": 128.931547
      },
      {
        "id": "570098",
        "name": "대구은행건너",
        "lat": 35.963312,
        "lng": 128.935064
      },
      {
        "id": "570099",
        "name": "영천공설시장(영천신협 유명약국)",
        "lat": 35.9634,
        "lng": 128.938458
      },
      {
        "id": "570007",
        "name": "영천공설시장건너",
        "lat": 35.965071,
        "lng": 128.939101
      },
      {
        "id": "570008",
        "name": "영동교(시청방향)",
        "lat": 35.96633,
        "lng": 128.939042
      },
      {
        "id": "570009",
        "name": "영천시청.영천축산농협건너",
        "lat": 35.97112,
        "lng": 128.939494
      },
      {
        "id": "570010",
        "name": "주공1차아파트건너",
        "lat": 35.972063,
        "lng": 128.941324
      },
      {
        "id": "570011",
        "name": "동부동사무소 입구건너",
        "lat": 35.973248,
        "lng": 128.943869
      },
      {
        "id": "570012",
        "name": "영천고.문화아파트",
        "lat": 35.974088,
        "lng": 128.94593
      },
      {
        "id": "570059",
        "name": "청호아파트건너",
        "lat": 35.975522,
        "lng": 128.950332
      },
      {
        "id": "570016",
        "name": "영천소방서건너",
        "lat": 35.976784,
        "lng": 128.956893
      },
      {
        "id": "570017",
        "name": "동부초등학교건너",
        "lat": 35.977391,
        "lng": 128.960012
      },
      {
        "id": "571737",
        "name": "조교삼거리",
        "lat": 35.9786,
        "lng": 128.963001
      },
      {
        "id": "570019",
        "name": "언하동(임고방면)",
        "lat": 35.984437,
        "lng": 128.963258
      },
      {
        "id": "570307",
        "name": "언하동.새미(임고방면)",
        "lat": 35.989626,
        "lng": 128.966202
      },
      {
        "id": "571615",
        "name": "동산(임고방면)",
        "lat": 35.992849,
        "lng": 128.966892
      },
      {
        "id": "570308",
        "name": "매호1리.우내(임고방면)",
        "lat": 35.996614,
        "lng": 128.967473
      },
      {
        "id": "570309",
        "name": "매호2리.맘실(임고방면)",
        "lat": 36.00278,
        "lng": 128.970214
      },
      {
        "id": "570310",
        "name": "양항리.돌목(임고방면)",
        "lat": 36.010504,
        "lng": 128.973281
      },
      {
        "id": "570311",
        "name": "임고농협",
        "lat": 36.016081,
        "lng": 128.974487
      },
      {
        "id": "570399",
        "name": "임고면사무소건너",
        "lat": 36.02052,
        "lng": 128.974417
      },
      {
        "id": "571682",
        "name": "선원2리(자양방면)",
        "lat": 36.028176,
        "lng": 128.974375
      },
      {
        "id": "570401",
        "name": "평천리.신촌(자양방면)",
        "lat": 36.03361,
        "lng": 128.97658
      },
      {
        "id": "570402",
        "name": "평천리.다산(자양방면)",
        "lat": 36.039197,
        "lng": 128.979267
      },
      {
        "id": "570403",
        "name": "평천리(자양방면)",
        "lat": 36.041965,
        "lng": 128.983519
      },
      {
        "id": "570404",
        "name": "덕연리강변공원",
        "lat": 36.047096,
        "lng": 128.989922
      },
      {
        "id": "570405",
        "name": "덕연리창고앞(자양방면)",
        "lat": 36.049162,
        "lng": 128.993857
      },
      {
        "id": "570406",
        "name": "삼매1리(자양방면)",
        "lat": 36.052113,
        "lng": 129.000872
      },
      {
        "id": "570407",
        "name": "삼매3리(벌바위입구건너)",
        "lat": 36.054888,
        "lng": 129.010223
      },
      {
        "id": "570497",
        "name": "임고저수장건너",
        "lat": 36.056734,
        "lng": 129.013751
      },
      {
        "id": "570499",
        "name": "노항리(신방방면)",
        "lat": 36.065803,
        "lng": 129.037634
      },
      {
        "id": "571683",
        "name": "노항리.관악사입구",
        "lat": 36.06496,
        "lng": 129.053087
      },
      {
        "id": "570501",
        "name": "신방1리.신천(신방방면)",
        "lat": 36.065492,
        "lng": 129.066179
      },
      {
        "id": "571613",
        "name": "신방1리.골안(신방방면)",
        "lat": 36.067303,
        "lng": 129.074828
      },
      {
        "id": "571509",
        "name": "신방2리.장구밭(신방방면)",
        "lat": 36.068669,
        "lng": 129.081523
      },
      {
        "id": "571510",
        "name": "상신방",
        "lat": 36.073764,
        "lng": 129.095459
      },
      {
        "id": "571511",
        "name": "신방2리.장구밭(임고방면)",
        "lat": 36.06872,
        "lng": 129.081413
      },
      {
        "id": "570481",
        "name": "삼귀리회관앞",
        "lat": 36.081786,
        "lng": 129.074343
      },
      {
        "id": "570482",
        "name": "중삼귀(임고방면)",
        "lat": 36.082718,
        "lng": 129.070373
      },
      {
        "id": "570483",
        "name": "하삼귀(임고방면)",
        "lat": 36.082563,
        "lng": 129.063173
      },
      {
        "id": "570477",
        "name": "삼귀횟집",
        "lat": 36.083681,
        "lng": 129.056031
      },
      {
        "id": "570485",
        "name": "자양면삼귀리입구(임고방면)",
        "lat": 36.085263,
        "lng": 129.047981
      },
      {
        "id": "570486",
        "name": "붕어횟집",
        "lat": 36.082954,
        "lng": 129.041228
      },
      {
        "id": "570487",
        "name": "용산리(원각입구)",
        "lat": 36.085725,
        "lng": 129.036687
      },
      {
        "id": "571508",
        "name": "용산리",
        "lat": 36.088844,
        "lng": 129.035835
      },
      {
        "id": "570488",
        "name": "자양교회(수자원공사)",
        "lat": 36.080392,
        "lng": 129.032692
      },
      {
        "id": "570489",
        "name": "장승앞(임고방면)",
        "lat": 36.080912,
        "lng": 129.030447
      },
      {
        "id": "570490",
        "name": "망향공원 건너",
        "lat": 36.076969,
        "lng": 129.023308
      },
      {
        "id": "570491",
        "name": "자양면사무소",
        "lat": 36.078299,
        "lng": 129.01787
      },
      {
        "id": "570492",
        "name": "석류농원(임고방면)",
        "lat": 36.076111,
        "lng": 129.012969
      },
      {
        "id": "571609",
        "name": "용화(용화방면)",
        "lat": 36.08033,
        "lng": 129.00075
      },
      {
        "id": "570494",
        "name": "용화리.마을회관",
        "lat": 36.088036,
        "lng": 129.001151
      },
      {
        "id": "571610",
        "name": "용화(영천방면)",
        "lat": 36.080353,
        "lng": 129.000606
      },
      {
        "id": "570495",
        "name": "용화입구(용화방면)",
        "lat": 36.078193,
        "lng": 128.999508
      },
      {
        "id": "571612",
        "name": "영천댐(임고방면)",
        "lat": 36.063599,
        "lng": 129.011973
      },
      {
        "id": "571619",
        "name": "임고IC(임고방면)",
        "lat": 36.055743,
        "lng": 129.010042
      },
      {
        "id": "570510",
        "name": "삼매1리(임고방면)",
        "lat": 36.052195,
        "lng": 129.000824
      },
      {
        "id": "570511",
        "name": "덕연리창고앞(임고방면)",
        "lat": 36.049299,
        "lng": 128.99375
      },
      {
        "id": "570523",
        "name": "덕연리강변공원건너",
        "lat": 36.046786,
        "lng": 128.989348
      },
      {
        "id": "570524",
        "name": "평천리(임고방면)",
        "lat": 36.042019,
        "lng": 128.983371
      },
      {
        "id": "570525",
        "name": "평천리.다산(임고방면)",
        "lat": 36.039192,
        "lng": 128.979106
      },
      {
        "id": "570526",
        "name": "평천리.신촌(임고방면)",
        "lat": 36.033464,
        "lng": 128.97637
      },
      {
        "id": "570527",
        "name": "선원2리(임고방면)",
        "lat": 36.028749,
        "lng": 128.974678
      },
      {
        "id": "570533",
        "name": "임고면사무소",
        "lat": 36.020616,
        "lng": 128.974298
      },
      {
        "id": "570367",
        "name": "임고서원",
        "lat": 36.016117,
        "lng": 128.974352
      },
      {
        "id": "570368",
        "name": "양항리.돌목(영천방면)",
        "lat": 36.010066,
        "lng": 128.972875
      },
      {
        "id": "570534",
        "name": "매호2리.맘실(영천방면)",
        "lat": 36.002635,
        "lng": 128.969858
      },
      {
        "id": "570535",
        "name": "매호1리.우내(영천방면)",
        "lat": 35.996735,
        "lng": 128.967232
      },
      {
        "id": "571616",
        "name": "동산(영천방면)",
        "lat": 35.993102,
        "lng": 128.966615
      },
      {
        "id": "570536",
        "name": "언하동.새미(영천방면)",
        "lat": 35.989881,
        "lng": 128.966009
      },
      {
        "id": "570068",
        "name": "언하동(조교방면)",
        "lat": 35.98455,
        "lng": 128.962978
      },
      {
        "id": "570069",
        "name": "동부초등학교",
        "lat": 35.97798,
        "lng": 128.962033
      },
      {
        "id": "570070",
        "name": "소방서입구",
        "lat": 35.976843,
        "lng": 128.956584
      },
      {
        "id": "570060",
        "name": "주공3.4단지후문",
        "lat": 35.97255,
        "lng": 128.951335
      },
      {
        "id": "570061",
        "name": "망정주공3.4단지앞",
        "lat": 35.971827,
        "lng": 128.949244
      },
      {
        "id": "570062",
        "name": "망정주공1단지",
        "lat": 35.973875,
        "lng": 128.948496
      },
      {
        "id": "571478",
        "name": "영천고등학교건너",
        "lat": 35.973766,
        "lng": 128.944713
      },
      {
        "id": "571479",
        "name": "주공1차아파트앞",
        "lat": 35.97247,
        "lng": 128.941833
      },
      {
        "id": "570039",
        "name": "영천시청.영천축산농협앞",
        "lat": 35.971512,
        "lng": 128.93977
      },
      {
        "id": "570071",
        "name": "영천공설시장앞",
        "lat": 35.965162,
        "lng": 128.938702
      },
      {
        "id": "570087",
        "name": "영천농협본점",
        "lat": 35.963531,
        "lng": 128.93645
      },
      {
        "id": "570076",
        "name": "손한방병원건너",
        "lat": 35.962673,
        "lng": 128.931845
      },
      {
        "id": "570077",
        "name": "영풍한의원",
        "lat": 35.961592,
        "lng": 128.929553
      },
      {
        "id": "570078",
        "name": "영천버스터미널건너",
        "lat": 35.961106,
        "lng": 128.92713
      }
    ]
  },
  "자양1_2": {
    "routeid": "YCB357000432",
    "type": "지선버스",
    "stops": [
      {
        "id": "571571",
        "name": "영천터미널",
        "lat": 35.96051,
        "lng": 128.927914
      },
      {
        "id": "570002",
        "name": "손한방병원",
        "lat": 35.962351,
        "lng": 128.931547
      },
      {
        "id": "570098",
        "name": "대구은행건너",
        "lat": 35.963312,
        "lng": 128.935064
      },
      {
        "id": "570099",
        "name": "영천공설시장(영천신협 유명약국)",
        "lat": 35.9634,
        "lng": 128.938458
      },
      {
        "id": "570007",
        "name": "영천공설시장건너",
        "lat": 35.965071,
        "lng": 128.939101
      },
      {
        "id": "570008",
        "name": "영동교(시청방향)",
        "lat": 35.96633,
        "lng": 128.939042
      },
      {
        "id": "570009",
        "name": "영천시청.영천축산농협건너",
        "lat": 35.97112,
        "lng": 128.939494
      },
      {
        "id": "570010",
        "name": "주공1차아파트건너",
        "lat": 35.972063,
        "lng": 128.941324
      },
      {
        "id": "570011",
        "name": "동부동사무소 입구건너",
        "lat": 35.973248,
        "lng": 128.943869
      },
      {
        "id": "570012",
        "name": "영천고.문화아파트",
        "lat": 35.974088,
        "lng": 128.94593
      },
      {
        "id": "570059",
        "name": "청호아파트건너",
        "lat": 35.975522,
        "lng": 128.950332
      },
      {
        "id": "570016",
        "name": "영천소방서건너",
        "lat": 35.976784,
        "lng": 128.956893
      },
      {
        "id": "570017",
        "name": "동부초등학교건너",
        "lat": 35.977391,
        "lng": 128.960012
      },
      {
        "id": "571737",
        "name": "조교삼거리",
        "lat": 35.9786,
        "lng": 128.963001
      },
      {
        "id": "570019",
        "name": "언하동(임고방면)",
        "lat": 35.984437,
        "lng": 128.963258
      },
      {
        "id": "570307",
        "name": "언하동.새미(임고방면)",
        "lat": 35.989626,
        "lng": 128.966202
      },
      {
        "id": "571615",
        "name": "동산(임고방면)",
        "lat": 35.992849,
        "lng": 128.966892
      },
      {
        "id": "570308",
        "name": "매호1리.우내(임고방면)",
        "lat": 35.996614,
        "lng": 128.967473
      },
      {
        "id": "570309",
        "name": "매호2리.맘실(임고방면)",
        "lat": 36.00278,
        "lng": 128.970214
      },
      {
        "id": "570310",
        "name": "양항리.돌목(임고방면)",
        "lat": 36.010504,
        "lng": 128.973281
      },
      {
        "id": "570311",
        "name": "임고농협",
        "lat": 36.016081,
        "lng": 128.974487
      },
      {
        "id": "570399",
        "name": "임고면사무소건너",
        "lat": 36.02052,
        "lng": 128.974417
      },
      {
        "id": "571682",
        "name": "선원2리(자양방면)",
        "lat": 36.028176,
        "lng": 128.974375
      },
      {
        "id": "570401",
        "name": "평천리.신촌(자양방면)",
        "lat": 36.03361,
        "lng": 128.97658
      },
      {
        "id": "570402",
        "name": "평천리.다산(자양방면)",
        "lat": 36.039197,
        "lng": 128.979267
      },
      {
        "id": "570403",
        "name": "평천리(자양방면)",
        "lat": 36.041965,
        "lng": 128.983519
      },
      {
        "id": "570404",
        "name": "덕연리강변공원",
        "lat": 36.047096,
        "lng": 128.989922
      },
      {
        "id": "570405",
        "name": "덕연리창고앞(자양방면)",
        "lat": 36.049162,
        "lng": 128.993857
      },
      {
        "id": "570406",
        "name": "삼매1리(자양방면)",
        "lat": 36.052113,
        "lng": 129.000872
      },
      {
        "id": "571620",
        "name": "임고IC(자양방면)",
        "lat": 36.055739,
        "lng": 129.010281
      },
      {
        "id": "571611",
        "name": "영천댐(자양방면)",
        "lat": 36.063633,
        "lng": 129.012351
      },
      {
        "id": "571609",
        "name": "용화(용화방면)",
        "lat": 36.08033,
        "lng": 129.00075
      },
      {
        "id": "570494",
        "name": "용화리.마을회관",
        "lat": 36.088036,
        "lng": 129.001151
      },
      {
        "id": "571610",
        "name": "용화(영천방면)",
        "lat": 36.080353,
        "lng": 129.000606
      },
      {
        "id": "570495",
        "name": "용화입구(용화방면)",
        "lat": 36.078193,
        "lng": 128.999508
      },
      {
        "id": "570409",
        "name": "석류농원(자양방면)",
        "lat": 36.076016,
        "lng": 129.013011
      },
      {
        "id": "570410",
        "name": "자양면사무소건너",
        "lat": 36.07807,
        "lng": 129.018136
      },
      {
        "id": "570411",
        "name": "망향공원",
        "lat": 36.076882,
        "lng": 129.023345
      },
      {
        "id": "570412",
        "name": "장승앞(자양방면)",
        "lat": 36.080799,
        "lng": 129.030477
      },
      {
        "id": "570413",
        "name": "자양교회(수자원공사)건너",
        "lat": 36.080345,
        "lng": 129.03278
      },
      {
        "id": "571508",
        "name": "용산리",
        "lat": 36.088844,
        "lng": 129.035835
      },
      {
        "id": "570414",
        "name": "용산리(원각입구건너)",
        "lat": 36.085612,
        "lng": 129.03674
      },
      {
        "id": "570415",
        "name": "붕어횟집건너",
        "lat": 36.082814,
        "lng": 129.041252
      },
      {
        "id": "571751",
        "name": "삼귀횟집",
        "lat": 36.083657,
        "lng": 129.055961
      },
      {
        "id": "570478",
        "name": "하삼귀(삼귀방면)",
        "lat": 36.082478,
        "lng": 129.063146
      },
      {
        "id": "570479",
        "name": "중삼귀(삼귀방면)",
        "lat": 36.082644,
        "lng": 129.070349
      },
      {
        "id": "570480",
        "name": "삼귀리회관건너",
        "lat": 36.081696,
        "lng": 129.074346
      },
      {
        "id": "570504",
        "name": "신방1리.골안(임고방면)",
        "lat": 36.067412,
        "lng": 129.074753
      },
      {
        "id": "570505",
        "name": "신방1리.신천(임고방면)",
        "lat": 36.065593,
        "lng": 129.066082
      },
      {
        "id": "570506",
        "name": "노항리.관악사입구건너",
        "lat": 36.065083,
        "lng": 129.053018
      },
      {
        "id": "570507",
        "name": "노항리(임고방면)",
        "lat": 36.065922,
        "lng": 129.037631
      },
      {
        "id": "570509",
        "name": "임고정수장",
        "lat": 36.056874,
        "lng": 129.013744
      },
      {
        "id": "570496",
        "name": "삼매3리(벌바위입구)",
        "lat": 36.05497,
        "lng": 129.010194
      },
      {
        "id": "570510",
        "name": "삼매1리(임고방면)",
        "lat": 36.052195,
        "lng": 129.000824
      },
      {
        "id": "570511",
        "name": "덕연리창고앞(임고방면)",
        "lat": 36.049299,
        "lng": 128.99375
      },
      {
        "id": "570523",
        "name": "덕연리강변공원건너",
        "lat": 36.046786,
        "lng": 128.989348
      },
      {
        "id": "570524",
        "name": "평천리(임고방면)",
        "lat": 36.042019,
        "lng": 128.983371
      },
      {
        "id": "570525",
        "name": "평천리.다산(임고방면)",
        "lat": 36.039192,
        "lng": 128.979106
      },
      {
        "id": "570526",
        "name": "평천리.신촌(임고방면)",
        "lat": 36.033464,
        "lng": 128.97637
      },
      {
        "id": "570527",
        "name": "선원2리(임고방면)",
        "lat": 36.028749,
        "lng": 128.974678
      },
      {
        "id": "570533",
        "name": "임고면사무소",
        "lat": 36.020616,
        "lng": 128.974298
      },
      {
        "id": "570367",
        "name": "임고서원",
        "lat": 36.016117,
        "lng": 128.974352
      },
      {
        "id": "570368",
        "name": "양항리.돌목(영천방면)",
        "lat": 36.010066,
        "lng": 128.972875
      },
      {
        "id": "570534",
        "name": "매호2리.맘실(영천방면)",
        "lat": 36.002635,
        "lng": 128.969858
      },
      {
        "id": "570535",
        "name": "매호1리.우내(영천방면)",
        "lat": 35.996735,
        "lng": 128.967232
      },
      {
        "id": "571616",
        "name": "동산(영천방면)",
        "lat": 35.993102,
        "lng": 128.966615
      },
      {
        "id": "570536",
        "name": "언하동.새미(영천방면)",
        "lat": 35.989881,
        "lng": 128.966009
      },
      {
        "id": "570068",
        "name": "언하동(조교방면)",
        "lat": 35.98455,
        "lng": 128.962978
      },
      {
        "id": "570069",
        "name": "동부초등학교",
        "lat": 35.97798,
        "lng": 128.962033
      },
      {
        "id": "570070",
        "name": "소방서입구",
        "lat": 35.976843,
        "lng": 128.956584
      },
      {
        "id": "570060",
        "name": "주공3.4단지후문",
        "lat": 35.97255,
        "lng": 128.951335
      },
      {
        "id": "570061",
        "name": "망정주공3.4단지앞",
        "lat": 35.971827,
        "lng": 128.949244
      },
      {
        "id": "570062",
        "name": "망정주공1단지",
        "lat": 35.973875,
        "lng": 128.948496
      },
      {
        "id": "571478",
        "name": "영천고등학교건너",
        "lat": 35.973766,
        "lng": 128.944713
      },
      {
        "id": "571479",
        "name": "주공1차아파트앞",
        "lat": 35.97247,
        "lng": 128.941833
      },
      {
        "id": "570039",
        "name": "영천시청.영천축산농협앞",
        "lat": 35.971512,
        "lng": 128.93977
      },
      {
        "id": "570071",
        "name": "영천공설시장앞",
        "lat": 35.965162,
        "lng": 128.938702
      },
      {
        "id": "570087",
        "name": "영천농협본점",
        "lat": 35.963531,
        "lng": 128.93645
      },
      {
        "id": "570076",
        "name": "손한방병원건너",
        "lat": 35.962673,
        "lng": 128.931845
      },
      {
        "id": "570077",
        "name": "영풍한의원",
        "lat": 35.961592,
        "lng": 128.929553
      },
      {
        "id": "570078",
        "name": "영천버스터미널건너",
        "lat": 35.961106,
        "lng": 128.92713
      }
    ]
  },
  "222-3": {
    "routeid": "YCB357000434",
    "type": "지선버스",
    "stops": [
      {
        "id": "570115",
        "name": "금호터미널",
        "lat": 35.93058,
        "lng": 128.869721
      },
      {
        "id": "571766",
        "name": "금호콜마트 건너",
        "lat": 35.931923,
        "lng": 128.872013
      },
      {
        "id": "571486",
        "name": "금호우방타운아파트 건너(청통방면)",
        "lat": 35.933587,
        "lng": 128.871032
      },
      {
        "id": "571228",
        "name": "대평리.장구마을(청통방면)",
        "lat": 35.944495,
        "lng": 128.864419
      },
      {
        "id": "571229",
        "name": "풍락저수지밑건너",
        "lat": 35.945793,
        "lng": 128.863774
      },
      {
        "id": "571230",
        "name": "전륜사",
        "lat": 35.952282,
        "lng": 128.862574
      },
      {
        "id": "571231",
        "name": "대평모텔",
        "lat": 35.957195,
        "lng": 128.864751
      },
      {
        "id": "710675",
        "name": "대장골",
        "lat": 35.96609,
        "lng": 128.853362
      },
      {
        "id": "710673",
        "name": "한티재",
        "lat": 35.968011,
        "lng": 128.842068
      },
      {
        "id": "710672",
        "name": "청통IC",
        "lat": 35.968321,
        "lng": 128.830366
      },
      {
        "id": "571179",
        "name": "송천리.송천공단(청통방면)",
        "lat": 35.966642,
        "lng": 128.822438
      },
      {
        "id": "571181",
        "name": "덕산(천일주유소)",
        "lat": 35.971272,
        "lng": 128.822112
      },
      {
        "id": "571182",
        "name": "송천리.월성(청통방면)",
        "lat": 35.97566,
        "lng": 128.823484
      },
      {
        "id": "571183",
        "name": "원촌1리.창마(청통방면)",
        "lat": 35.984797,
        "lng": 128.824365
      },
      {
        "id": "571184",
        "name": "원촌2리(새마을금고건너)",
        "lat": 35.989082,
        "lng": 128.823576
      },
      {
        "id": "571185",
        "name": "치일2리(복지타운)",
        "lat": 35.991382,
        "lng": 128.822863
      },
      {
        "id": "571186",
        "name": "신학1리(신촌)",
        "lat": 35.995163,
        "lng": 128.8204
      },
      {
        "id": "571160",
        "name": "애련입구(은해사방면)",
        "lat": 35.99568,
        "lng": 128.818524
      },
      {
        "id": "571161",
        "name": "청통CC입구건너",
        "lat": 35.994874,
        "lng": 128.814211
      },
      {
        "id": "571162",
        "name": "장원고시원 입구",
        "lat": 35.994158,
        "lng": 128.810447
      },
      {
        "id": "571164",
        "name": "치일리(은해사방면)",
        "lat": 35.992825,
        "lng": 128.801321
      },
      {
        "id": "571165",
        "name": "은해사(종점)",
        "lat": 35.990831,
        "lng": 128.799194
      },
      {
        "id": "571166",
        "name": "치일리(청통방면)",
        "lat": 35.992765,
        "lng": 128.8014
      },
      {
        "id": "571167",
        "name": "가톨릭대청통수련원입구",
        "lat": 35.993615,
        "lng": 128.806879
      },
      {
        "id": "571168",
        "name": "장원고시원 입구건너",
        "lat": 35.994031,
        "lng": 128.810485
      },
      {
        "id": "571169",
        "name": "청통CC입구",
        "lat": 35.994748,
        "lng": 128.814336
      },
      {
        "id": "571187",
        "name": "청통초등학교",
        "lat": 35.994803,
        "lng": 128.826324
      },
      {
        "id": "571188",
        "name": "신학2리(삼부방면)",
        "lat": 35.994135,
        "lng": 128.828742
      },
      {
        "id": "571189",
        "name": "보성리(봉수입구건너)",
        "lat": 35.993808,
        "lng": 128.841037
      },
      {
        "id": "571190",
        "name": "보성농공단지입구건너",
        "lat": 35.992174,
        "lng": 128.844481
      },
      {
        "id": "571191",
        "name": "부경산업 건너",
        "lat": 35.990747,
        "lng": 128.847907
      },
      {
        "id": "571192",
        "name": "보성리(목성건너)",
        "lat": 35.989957,
        "lng": 128.852091
      },
      {
        "id": "571193",
        "name": "우천1리(보건진료소건너)",
        "lat": 35.987542,
        "lng": 128.86198
      },
      {
        "id": "571195",
        "name": "우천(금호방면)",
        "lat": 35.986278,
        "lng": 128.864691
      },
      {
        "id": "571196",
        "name": "경안프랜트",
        "lat": 35.980228,
        "lng": 128.864931
      },
      {
        "id": "571197",
        "name": "청통면신덕리(금호방면)",
        "lat": 35.975549,
        "lng": 128.863821
      },
      {
        "id": "571198",
        "name": "신덕1리(금호방면)",
        "lat": 35.97105,
        "lng": 128.863513
      },
      {
        "id": "571199",
        "name": "신덕2리.대평(금호방면)",
        "lat": 35.965491,
        "lng": 128.864332
      },
      {
        "id": "571690",
        "name": "대평모텔건너",
        "lat": 35.957332,
        "lng": 128.864621
      },
      {
        "id": "571201",
        "name": "전륜사건너",
        "lat": 35.95206,
        "lng": 128.862336
      },
      {
        "id": "571202",
        "name": "풍락저수지밑",
        "lat": 35.945878,
        "lng": 128.863543
      },
      {
        "id": "571203",
        "name": "대평리.장구마을(금호방면)",
        "lat": 35.944452,
        "lng": 128.86423
      },
      {
        "id": "571485",
        "name": "금호 콜마트",
        "lat": 35.931937,
        "lng": 128.871703
      },
      {
        "id": "570111",
        "name": "금호터미널건너",
        "lat": 35.930631,
        "lng": 128.869384
      }
    ]
  },
  "555-1": {
    "routeid": "YCB357000435",
    "type": "간선버스",
    "stops": [
      {
        "id": "570021",
        "name": "창신아파트앞",
        "lat": 35.986265,
        "lng": 128.955165
      },
      {
        "id": "571759",
        "name": "창신아파트앞(가상정류장)",
        "lat": 35.986197,
        "lng": 128.954794
      },
      {
        "id": "570022",
        "name": "전경부대앞",
        "lat": 35.985351,
        "lng": 128.95155
      },
      {
        "id": "570023",
        "name": "한신더휴영천퍼스트.세왕금속",
        "lat": 35.983007,
        "lng": 128.952124
      },
      {
        "id": "710680",
        "name": "보성스타팰리스",
        "lat": 35.980008,
        "lng": 128.952772
      },
      {
        "id": "570024",
        "name": "대일빌라입구",
        "lat": 35.978252,
        "lng": 128.953094
      },
      {
        "id": "571752",
        "name": "제이병원",
        "lat": 35.976654,
        "lng": 128.953485
      },
      {
        "id": "570025",
        "name": "청호아파트앞",
        "lat": 35.975677,
        "lng": 128.950181
      },
      {
        "id": "571478",
        "name": "영천고등학교건너",
        "lat": 35.973766,
        "lng": 128.944713
      },
      {
        "id": "571479",
        "name": "주공1차아파트앞",
        "lat": 35.97247,
        "lng": 128.941833
      },
      {
        "id": "570039",
        "name": "영천시청.영천축산농협앞",
        "lat": 35.971512,
        "lng": 128.93977
      },
      {
        "id": "570071",
        "name": "영천공설시장앞",
        "lat": 35.965162,
        "lng": 128.938702
      },
      {
        "id": "570087",
        "name": "영천농협본점",
        "lat": 35.963531,
        "lng": 128.93645
      },
      {
        "id": "570076",
        "name": "손한방병원건너",
        "lat": 35.962673,
        "lng": 128.931845
      },
      {
        "id": "570077",
        "name": "영풍한의원",
        "lat": 35.961592,
        "lng": 128.929553
      },
      {
        "id": "570078",
        "name": "영천버스터미널건너",
        "lat": 35.961106,
        "lng": 128.92713
      },
      {
        "id": "570079",
        "name": "경주세무서영천지서건너",
        "lat": 35.962513,
        "lng": 128.924554
      },
      {
        "id": "570101",
        "name": "영천여고건너(주유소앞)",
        "lat": 35.963072,
        "lng": 128.921962
      },
      {
        "id": "570102",
        "name": "오수동.쌍계마을입구(금호방면)",
        "lat": 35.961074,
        "lng": 128.916033
      },
      {
        "id": "570103",
        "name": "오수동e마트",
        "lat": 35.957745,
        "lng": 128.911513
      },
      {
        "id": "570104",
        "name": "영천경찰서",
        "lat": 35.951417,
        "lng": 128.906562
      },
      {
        "id": "570105",
        "name": "신월리 입구 건너",
        "lat": 35.943914,
        "lng": 128.904132
      },
      {
        "id": "570106",
        "name": "윤성아파트앞",
        "lat": 35.941292,
        "lng": 128.899515
      },
      {
        "id": "710709",
        "name": "포산장미아파트 건너",
        "lat": 35.935288,
        "lng": 128.885576
      },
      {
        "id": "570107",
        "name": "냉천리(금호방면)",
        "lat": 35.934545,
        "lng": 128.882958
      },
      {
        "id": "570108",
        "name": "금호초등학교",
        "lat": 35.933924,
        "lng": 128.881206
      },
      {
        "id": "570109",
        "name": "금호읍사무소",
        "lat": 35.93245,
        "lng": 128.877515
      },
      {
        "id": "570110",
        "name": "금호시장앞",
        "lat": 35.931559,
        "lng": 128.873444
      },
      {
        "id": "570111",
        "name": "금호터미널건너",
        "lat": 35.930631,
        "lng": 128.869384
      },
      {
        "id": "570112",
        "name": "금호역",
        "lat": 35.930322,
        "lng": 128.867814
      },
      {
        "id": "571576",
        "name": "계당리(동일금속)",
        "lat": 35.929026,
        "lng": 128.862183
      },
      {
        "id": "652443",
        "name": "계당2리(하양방향)",
        "lat": 35.926952,
        "lng": 128.856174
      },
      {
        "id": "609100",
        "name": "계당초교입구",
        "lat": 35.925662,
        "lng": 128.852444
      },
      {
        "id": "609000",
        "name": "시천교(하양방향)",
        "lat": 35.923601,
        "lng": 128.846463
      },
      {
        "id": "608900",
        "name": "부림요양병원",
        "lat": 35.922542,
        "lng": 128.843237
      },
      {
        "id": "608700",
        "name": "용천입구(경산방향)",
        "lat": 35.920158,
        "lng": 128.838895
      },
      {
        "id": "652419",
        "name": "동서오거리(하양방향)",
        "lat": 35.919357,
        "lng": 128.83321
      },
      {
        "id": "606600",
        "name": "하양청구2차타운 건너",
        "lat": 35.917813,
        "lng": 128.82843
      },
      {
        "id": "637140",
        "name": "하양코아루아파트",
        "lat": 35.917562,
        "lng": 128.825978
      },
      {
        "id": "602200",
        "name": "하양한전 건너",
        "lat": 35.916773,
        "lng": 128.822737
      },
      {
        "id": "652418",
        "name": "하양시장",
        "lat": 35.914882,
        "lng": 128.820838
      },
      {
        "id": "601900",
        "name": "하양초등학교 건너",
        "lat": 35.913239,
        "lng": 128.81838
      },
      {
        "id": "606300",
        "name": "하양역 건너",
        "lat": 35.91045,
        "lng": 128.815115
      },
      {
        "id": "607000",
        "name": "하양시외버스터미널 건너",
        "lat": 35.909237,
        "lng": 128.813686
      },
      {
        "id": "601700",
        "name": "대구가톨릭대학교",
        "lat": 35.907357,
        "lng": 128.811367
      },
      {
        "id": "613800",
        "name": "부호리",
        "lat": 35.900864,
        "lng": 128.803943
      },
      {
        "id": "613700",
        "name": "부호역",
        "lat": 35.90028,
        "lng": 128.802764
      },
      {
        "id": "710706",
        "name": "하양역",
        "lat": 35.910099,
        "lng": 128.818059
      },
      {
        "id": "652350",
        "name": "용천입구(영천방향)",
        "lat": 35.920045,
        "lng": 128.83892
      },
      {
        "id": "608800",
        "name": "부림요양병원 건너",
        "lat": 35.922398,
        "lng": 128.843206
      },
      {
        "id": "617000",
        "name": "시천교(금호방향)",
        "lat": 35.923541,
        "lng": 128.846708
      },
      {
        "id": "617100",
        "name": "계당초교입구건너",
        "lat": 35.925467,
        "lng": 128.852234
      },
      {
        "id": "609200",
        "name": "용천2리(금호방향)",
        "lat": 35.926726,
        "lng": 128.855936
      },
      {
        "id": "570113",
        "name": "덕성리동일금속",
        "lat": 35.929163,
        "lng": 128.863516
      },
      {
        "id": "570114",
        "name": "금호역건너",
        "lat": 35.930172,
        "lng": 128.867883
      },
      {
        "id": "570115",
        "name": "금호터미널",
        "lat": 35.93058,
        "lng": 128.869721
      },
      {
        "id": "570116",
        "name": "금호시장건너",
        "lat": 35.931328,
        "lng": 128.873217
      },
      {
        "id": "570117",
        "name": "금호읍사무소건너",
        "lat": 35.932613,
        "lng": 128.878062
      },
      {
        "id": "570118",
        "name": "냉천2리회관.금호초등건너",
        "lat": 35.934075,
        "lng": 128.881947
      },
      {
        "id": "570119",
        "name": "냉천리(영천방면)",
        "lat": 35.934683,
        "lng": 128.884809
      },
      {
        "id": "570120",
        "name": "KC피드",
        "lat": 35.938743,
        "lng": 128.893758
      },
      {
        "id": "570121",
        "name": "윤성아파트건너",
        "lat": 35.940745,
        "lng": 128.898837
      },
      {
        "id": "570122",
        "name": "신월리입구",
        "lat": 35.943456,
        "lng": 128.904032
      },
      {
        "id": "570123",
        "name": "효사랑요양병원",
        "lat": 35.949267,
        "lng": 128.90579
      },
      {
        "id": "570124",
        "name": "영천경찰서건너",
        "lat": 35.951437,
        "lng": 128.906983
      },
      {
        "id": "570125",
        "name": "영대병원",
        "lat": 35.958758,
        "lng": 128.912978
      },
      {
        "id": "570126",
        "name": "오수동.쌍계마을입구(영천방면)",
        "lat": 35.960629,
        "lng": 128.915668
      },
      {
        "id": "570127",
        "name": "영천여고앞",
        "lat": 35.96292,
        "lng": 128.921016
      },
      {
        "id": "570038",
        "name": "경주세무서영천지서앞",
        "lat": 35.962458,
        "lng": 128.924241
      },
      {
        "id": "570001",
        "name": "영천버스터미널앞",
        "lat": 35.960846,
        "lng": 128.927512
      },
      {
        "id": "570002",
        "name": "손한방병원",
        "lat": 35.962351,
        "lng": 128.931547
      },
      {
        "id": "570098",
        "name": "대구은행건너",
        "lat": 35.963312,
        "lng": 128.935064
      },
      {
        "id": "570099",
        "name": "영천공설시장(영천신협 유명약국)",
        "lat": 35.9634,
        "lng": 128.938458
      },
      {
        "id": "570007",
        "name": "영천공설시장건너",
        "lat": 35.965071,
        "lng": 128.939101
      },
      {
        "id": "570008",
        "name": "영동교(시청방향)",
        "lat": 35.96633,
        "lng": 128.939042
      },
      {
        "id": "570009",
        "name": "영천시청.영천축산농협건너",
        "lat": 35.97112,
        "lng": 128.939494
      },
      {
        "id": "570010",
        "name": "주공1차아파트건너",
        "lat": 35.972063,
        "lng": 128.941324
      },
      {
        "id": "570011",
        "name": "동부동사무소 입구건너",
        "lat": 35.973248,
        "lng": 128.943869
      },
      {
        "id": "570012",
        "name": "영천고.문화아파트",
        "lat": 35.974088,
        "lng": 128.94593
      },
      {
        "id": "570059",
        "name": "청호아파트건너",
        "lat": 35.975522,
        "lng": 128.950332
      },
      {
        "id": "710681",
        "name": "제이병원 건너",
        "lat": 35.97702,
        "lng": 128.953729
      },
      {
        "id": "570063",
        "name": "대일빌라건너",
        "lat": 35.979098,
        "lng": 128.953279
      },
      {
        "id": "570064",
        "name": "망정휴먼시아5단지아파트",
        "lat": 35.98283,
        "lng": 128.952519
      },
      {
        "id": "570065",
        "name": "전경부대건너",
        "lat": 35.985289,
        "lng": 128.952014
      },
      {
        "id": "570066",
        "name": "창신아파트건너(우로지앞)",
        "lat": 35.985997,
        "lng": 128.954471
      }
    ]
  },
  "55-1": {
    "routeid": "YCB357000436",
    "type": "간선버스",
    "stops": [
      {
        "id": "570021",
        "name": "창신아파트앞",
        "lat": 35.986265,
        "lng": 128.955165
      },
      {
        "id": "571759",
        "name": "창신아파트앞(가상정류장)",
        "lat": 35.986197,
        "lng": 128.954794
      },
      {
        "id": "570022",
        "name": "전경부대앞",
        "lat": 35.985351,
        "lng": 128.95155
      },
      {
        "id": "570023",
        "name": "한신더휴영천퍼스트.세왕금속",
        "lat": 35.983007,
        "lng": 128.952124
      },
      {
        "id": "710680",
        "name": "보성스타팰리스",
        "lat": 35.980008,
        "lng": 128.952772
      },
      {
        "id": "570024",
        "name": "대일빌라입구",
        "lat": 35.978252,
        "lng": 128.953094
      },
      {
        "id": "571752",
        "name": "제이병원",
        "lat": 35.976654,
        "lng": 128.953485
      },
      {
        "id": "570025",
        "name": "청호아파트앞",
        "lat": 35.975677,
        "lng": 128.950181
      },
      {
        "id": "571478",
        "name": "영천고등학교건너",
        "lat": 35.973766,
        "lng": 128.944713
      },
      {
        "id": "571479",
        "name": "주공1차아파트앞",
        "lat": 35.97247,
        "lng": 128.941833
      },
      {
        "id": "570039",
        "name": "영천시청.영천축산농협앞",
        "lat": 35.971512,
        "lng": 128.93977
      },
      {
        "id": "570071",
        "name": "영천공설시장앞",
        "lat": 35.965162,
        "lng": 128.938702
      },
      {
        "id": "570087",
        "name": "영천농협본점",
        "lat": 35.963531,
        "lng": 128.93645
      },
      {
        "id": "570076",
        "name": "손한방병원건너",
        "lat": 35.962673,
        "lng": 128.931845
      },
      {
        "id": "570077",
        "name": "영풍한의원",
        "lat": 35.961592,
        "lng": 128.929553
      },
      {
        "id": "570078",
        "name": "영천버스터미널건너",
        "lat": 35.961106,
        "lng": 128.92713
      },
      {
        "id": "570079",
        "name": "경주세무서영천지서건너",
        "lat": 35.962513,
        "lng": 128.924554
      },
      {
        "id": "570101",
        "name": "영천여고건너(주유소앞)",
        "lat": 35.963072,
        "lng": 128.921962
      },
      {
        "id": "570102",
        "name": "오수동.쌍계마을입구(금호방면)",
        "lat": 35.961074,
        "lng": 128.916033
      },
      {
        "id": "570103",
        "name": "오수동e마트",
        "lat": 35.957745,
        "lng": 128.911513
      },
      {
        "id": "570104",
        "name": "영천경찰서",
        "lat": 35.951417,
        "lng": 128.906562
      },
      {
        "id": "570105",
        "name": "신월리 입구 건너",
        "lat": 35.943914,
        "lng": 128.904132
      },
      {
        "id": "570106",
        "name": "윤성아파트앞",
        "lat": 35.941292,
        "lng": 128.899515
      },
      {
        "id": "710709",
        "name": "포산장미아파트 건너",
        "lat": 35.935288,
        "lng": 128.885576
      },
      {
        "id": "570107",
        "name": "냉천리(금호방면)",
        "lat": 35.934545,
        "lng": 128.882958
      },
      {
        "id": "570108",
        "name": "금호초등학교",
        "lat": 35.933924,
        "lng": 128.881206
      },
      {
        "id": "570109",
        "name": "금호읍사무소",
        "lat": 35.93245,
        "lng": 128.877515
      },
      {
        "id": "570110",
        "name": "금호시장앞",
        "lat": 35.931559,
        "lng": 128.873444
      },
      {
        "id": "570111",
        "name": "금호터미널건너",
        "lat": 35.930631,
        "lng": 128.869384
      },
      {
        "id": "570112",
        "name": "금호역",
        "lat": 35.930322,
        "lng": 128.867814
      },
      {
        "id": "571576",
        "name": "계당리(동일금속)",
        "lat": 35.929026,
        "lng": 128.862183
      },
      {
        "id": "652443",
        "name": "계당2리(하양방향)",
        "lat": 35.926952,
        "lng": 128.856174
      },
      {
        "id": "609100",
        "name": "계당초교입구",
        "lat": 35.925662,
        "lng": 128.852444
      },
      {
        "id": "609000",
        "name": "시천교(하양방향)",
        "lat": 35.923601,
        "lng": 128.846463
      },
      {
        "id": "608900",
        "name": "부림요양병원",
        "lat": 35.922542,
        "lng": 128.843237
      },
      {
        "id": "608700",
        "name": "용천입구(경산방향)",
        "lat": 35.920158,
        "lng": 128.838895
      },
      {
        "id": "652419",
        "name": "동서오거리(하양방향)",
        "lat": 35.919357,
        "lng": 128.83321
      },
      {
        "id": "606600",
        "name": "하양청구2차타운 건너",
        "lat": 35.917813,
        "lng": 128.82843
      },
      {
        "id": "637140",
        "name": "하양코아루아파트",
        "lat": 35.917562,
        "lng": 128.825978
      },
      {
        "id": "602200",
        "name": "하양한전 건너",
        "lat": 35.916773,
        "lng": 128.822737
      },
      {
        "id": "652418",
        "name": "하양시장",
        "lat": 35.914882,
        "lng": 128.820838
      },
      {
        "id": "601900",
        "name": "하양초등학교 건너",
        "lat": 35.913239,
        "lng": 128.81838
      },
      {
        "id": "606300",
        "name": "하양역 건너",
        "lat": 35.91045,
        "lng": 128.815115
      },
      {
        "id": "607000",
        "name": "하양시외버스터미널 건너",
        "lat": 35.909237,
        "lng": 128.813686
      },
      {
        "id": "601700",
        "name": "대구가톨릭대학교",
        "lat": 35.907357,
        "lng": 128.811367
      },
      {
        "id": "613800",
        "name": "부호리",
        "lat": 35.900864,
        "lng": 128.803943
      },
      {
        "id": "613700",
        "name": "부호역",
        "lat": 35.90028,
        "lng": 128.802764
      },
      {
        "id": "710706",
        "name": "하양역",
        "lat": 35.910099,
        "lng": 128.818059
      },
      {
        "id": "652350",
        "name": "용천입구(영천방향)",
        "lat": 35.920045,
        "lng": 128.83892
      },
      {
        "id": "608800",
        "name": "부림요양병원 건너",
        "lat": 35.922398,
        "lng": 128.843206
      },
      {
        "id": "617000",
        "name": "시천교(금호방향)",
        "lat": 35.923541,
        "lng": 128.846708
      },
      {
        "id": "617100",
        "name": "계당초교입구건너",
        "lat": 35.925467,
        "lng": 128.852234
      },
      {
        "id": "609200",
        "name": "용천2리(금호방향)",
        "lat": 35.926726,
        "lng": 128.855936
      },
      {
        "id": "570113",
        "name": "덕성리동일금속",
        "lat": 35.929163,
        "lng": 128.863516
      },
      {
        "id": "570114",
        "name": "금호역건너",
        "lat": 35.930172,
        "lng": 128.867883
      },
      {
        "id": "570115",
        "name": "금호터미널",
        "lat": 35.93058,
        "lng": 128.869721
      },
      {
        "id": "570116",
        "name": "금호시장건너",
        "lat": 35.931328,
        "lng": 128.873217
      },
      {
        "id": "570117",
        "name": "금호읍사무소건너",
        "lat": 35.932613,
        "lng": 128.878062
      },
      {
        "id": "570118",
        "name": "냉천2리회관.금호초등건너",
        "lat": 35.934075,
        "lng": 128.881947
      },
      {
        "id": "570119",
        "name": "냉천리(영천방면)",
        "lat": 35.934683,
        "lng": 128.884809
      },
      {
        "id": "570120",
        "name": "KC피드",
        "lat": 35.938743,
        "lng": 128.893758
      },
      {
        "id": "570121",
        "name": "윤성아파트건너",
        "lat": 35.940745,
        "lng": 128.898837
      },
      {
        "id": "570122",
        "name": "신월리입구",
        "lat": 35.943456,
        "lng": 128.904032
      },
      {
        "id": "570123",
        "name": "효사랑요양병원",
        "lat": 35.949267,
        "lng": 128.90579
      },
      {
        "id": "570124",
        "name": "영천경찰서건너",
        "lat": 35.951437,
        "lng": 128.906983
      },
      {
        "id": "570125",
        "name": "영대병원",
        "lat": 35.958758,
        "lng": 128.912978
      },
      {
        "id": "570126",
        "name": "오수동.쌍계마을입구(영천방면)",
        "lat": 35.960629,
        "lng": 128.915668
      },
      {
        "id": "570127",
        "name": "영천여고앞",
        "lat": 35.96292,
        "lng": 128.921016
      },
      {
        "id": "570038",
        "name": "경주세무서영천지서앞",
        "lat": 35.962458,
        "lng": 128.924241
      },
      {
        "id": "570001",
        "name": "영천버스터미널앞",
        "lat": 35.960846,
        "lng": 128.927512
      },
      {
        "id": "570002",
        "name": "손한방병원",
        "lat": 35.962351,
        "lng": 128.931547
      },
      {
        "id": "570098",
        "name": "대구은행건너",
        "lat": 35.963312,
        "lng": 128.935064
      },
      {
        "id": "570099",
        "name": "영천공설시장(영천신협 유명약국)",
        "lat": 35.9634,
        "lng": 128.938458
      },
      {
        "id": "570007",
        "name": "영천공설시장건너",
        "lat": 35.965071,
        "lng": 128.939101
      },
      {
        "id": "570008",
        "name": "영동교(시청방향)",
        "lat": 35.96633,
        "lng": 128.939042
      },
      {
        "id": "570009",
        "name": "영천시청.영천축산농협건너",
        "lat": 35.97112,
        "lng": 128.939494
      },
      {
        "id": "570010",
        "name": "주공1차아파트건너",
        "lat": 35.972063,
        "lng": 128.941324
      },
      {
        "id": "570011",
        "name": "동부동사무소 입구건너",
        "lat": 35.973248,
        "lng": 128.943869
      },
      {
        "id": "570012",
        "name": "영천고.문화아파트",
        "lat": 35.974088,
        "lng": 128.94593
      },
      {
        "id": "570059",
        "name": "청호아파트건너",
        "lat": 35.975522,
        "lng": 128.950332
      },
      {
        "id": "710681",
        "name": "제이병원 건너",
        "lat": 35.97702,
        "lng": 128.953729
      },
      {
        "id": "570063",
        "name": "대일빌라건너",
        "lat": 35.979098,
        "lng": 128.953279
      },
      {
        "id": "570064",
        "name": "망정휴먼시아5단지아파트",
        "lat": 35.98283,
        "lng": 128.952519
      },
      {
        "id": "570065",
        "name": "전경부대건너",
        "lat": 35.985289,
        "lng": 128.952014
      },
      {
        "id": "570066",
        "name": "창신아파트건너(우로지앞)",
        "lat": 35.985997,
        "lng": 128.954471
      }
    ]
  },
  "2": {
    "routeid": "YCB357000438",
    "type": "순환버스",
    "stops": [
      {
        "id": "",
        "name": "영천영대병원",
        "lat": 35.957757,
        "lng": 128.912896
      },
      {
        "id": "570125",
        "name": "영대병원",
        "lat": 35.958758,
        "lng": 128.912978
      },
      {
        "id": "570126",
        "name": "오수동.쌍계마을입구(영천방면)",
        "lat": 35.960629,
        "lng": 128.915668
      },
      {
        "id": "570127",
        "name": "영천여고앞",
        "lat": 35.96292,
        "lng": 128.921016
      },
      {
        "id": "570082",
        "name": "서문육거리",
        "lat": 35.963659,
        "lng": 128.925246
      },
      {
        "id": "570083",
        "name": "성내동",
        "lat": 35.965165,
        "lng": 128.92822
      },
      {
        "id": "570084",
        "name": "중앙사거리",
        "lat": 35.966231,
        "lng": 128.930307
      },
      {
        "id": "570042",
        "name": "영천향교 국학학원 건너",
        "lat": 35.967786,
        "lng": 128.931047
      },
      {
        "id": "570043",
        "name": "영천시법원건너",
        "lat": 35.969499,
        "lng": 128.930465
      },
      {
        "id": "570051",
        "name": "중앙초등학교건너",
        "lat": 35.970444,
        "lng": 128.931652
      },
      {
        "id": "570052",
        "name": "문외LH센트럴타운건너",
        "lat": 35.971717,
        "lng": 128.934332
      },
      {
        "id": "570053",
        "name": "시청뒷편",
        "lat": 35.972997,
        "lng": 128.93709
      },
      {
        "id": "570054",
        "name": "야사주공2차아파트앞",
        "lat": 35.974576,
        "lng": 128.940299
      },
      {
        "id": "570055",
        "name": "영동새마을금고2지점(동부동주민센터)",
        "lat": 35.975323,
        "lng": 128.942002
      },
      {
        "id": "570056",
        "name": "야사신주공아파트건너",
        "lat": 35.976485,
        "lng": 128.944813
      },
      {
        "id": "570057",
        "name": "영동고등학교건너",
        "lat": 35.977232,
        "lng": 128.94655
      },
      {
        "id": "570058",
        "name": "망정네거리",
        "lat": 35.975635,
        "lng": 128.947786
      },
      {
        "id": "570059",
        "name": "청호아파트건너",
        "lat": 35.975522,
        "lng": 128.950332
      },
      {
        "id": "710681",
        "name": "제이병원 건너",
        "lat": 35.97702,
        "lng": 128.953729
      },
      {
        "id": "570063",
        "name": "대일빌라건너",
        "lat": 35.979098,
        "lng": 128.953279
      },
      {
        "id": "570064",
        "name": "망정휴먼시아5단지아파트",
        "lat": 35.98283,
        "lng": 128.952519
      },
      {
        "id": "570065",
        "name": "전경부대건너",
        "lat": 35.985289,
        "lng": 128.952014
      },
      {
        "id": "570066",
        "name": "창신아파트건너(우로지앞)",
        "lat": 35.985997,
        "lng": 128.954471
      },
      {
        "id": "570067",
        "name": "갑을공단(화신건너)",
        "lat": 35.986458,
        "lng": 128.959882
      },
      {
        "id": "570068",
        "name": "언하동(조교방면)",
        "lat": 35.98455,
        "lng": 128.962978
      },
      {
        "id": "570069",
        "name": "동부초등학교",
        "lat": 35.97798,
        "lng": 128.962033
      },
      {
        "id": "570070",
        "name": "소방서입구",
        "lat": 35.976843,
        "lng": 128.956584
      },
      {
        "id": "570025",
        "name": "청호아파트앞",
        "lat": 35.975677,
        "lng": 128.950181
      },
      {
        "id": "570013",
        "name": "새야사시장앞(망정주공건너)",
        "lat": 35.973364,
        "lng": 128.948384
      },
      {
        "id": "570014",
        "name": "우방아파트앞",
        "lat": 35.971318,
        "lng": 128.949497
      },
      {
        "id": "571715",
        "name": "미소지움2차",
        "lat": 35.96671,
        "lng": 128.947559
      },
      {
        "id": "571714",
        "name": "미소지움1차",
        "lat": 35.966396,
        "lng": 128.943852
      },
      {
        "id": "571711",
        "name": "e편한세상",
        "lat": 35.964173,
        "lng": 128.943977
      },
      {
        "id": "571760",
        "name": "롯데시네마건너",
        "lat": 35.963688,
        "lng": 128.940845
      },
      {
        "id": "570072",
        "name": "시장사거리(영천역방면)",
        "lat": 35.963014,
        "lng": 128.9389
      },
      {
        "id": "570073",
        "name": "영천우체국.영천역",
        "lat": 35.960952,
        "lng": 128.939074
      },
      {
        "id": "570074",
        "name": "영천전화국건너",
        "lat": 35.961595,
        "lng": 128.936931
      },
      {
        "id": "570075",
        "name": "중앙농민상담소건너",
        "lat": 35.962932,
        "lng": 128.934747
      },
      {
        "id": "570076",
        "name": "손한방병원건너",
        "lat": 35.962673,
        "lng": 128.931845
      },
      {
        "id": "570077",
        "name": "영풍한의원",
        "lat": 35.961592,
        "lng": 128.929553
      },
      {
        "id": "570078",
        "name": "영천버스터미널건너",
        "lat": 35.961106,
        "lng": 128.92713
      },
      {
        "id": "570079",
        "name": "경주세무서영천지서건너",
        "lat": 35.962513,
        "lng": 128.924554
      },
      {
        "id": "570973",
        "name": "영천여중",
        "lat": 35.964543,
        "lng": 128.920695
      },
      {
        "id": "571262",
        "name": "북영천역.향군회관",
        "lat": 35.96548,
        "lng": 128.918146
      },
      {
        "id": "571263",
        "name": "영천여고건너",
        "lat": 35.963502,
        "lng": 128.919578
      },
      {
        "id": "570102",
        "name": "오수동.쌍계마을입구(금호방면)",
        "lat": 35.961074,
        "lng": 128.916033
      },
      {
        "id": "710708",
        "name": "영천영대병원",
        "lat": 35.957816,
        "lng": 128.912875
      }
    ]
  },
  "2-3": {
    "routeid": "YCB357000439",
    "type": "순환버스",
    "stops": [
      {
        "id": "",
        "name": "영천영대병원",
        "lat": 35.957757,
        "lng": 128.912896
      },
      {
        "id": "570125",
        "name": "영대병원",
        "lat": 35.958758,
        "lng": 128.912978
      },
      {
        "id": "571758",
        "name": "영천영대병원(가상정류장)",
        "lat": 35.95894,
        "lng": 128.913178
      },
      {
        "id": "570126",
        "name": "오수동.쌍계마을입구(영천방면)",
        "lat": 35.960629,
        "lng": 128.915668
      },
      {
        "id": "570127",
        "name": "영천여고앞",
        "lat": 35.96292,
        "lng": 128.921016
      },
      {
        "id": "570082",
        "name": "서문육거리",
        "lat": 35.963659,
        "lng": 128.925246
      },
      {
        "id": "570083",
        "name": "성내동",
        "lat": 35.965165,
        "lng": 128.92822
      },
      {
        "id": "570084",
        "name": "중앙사거리",
        "lat": 35.966231,
        "lng": 128.930307
      },
      {
        "id": "570042",
        "name": "영천향교 국학학원 건너",
        "lat": 35.967786,
        "lng": 128.931047
      },
      {
        "id": "570043",
        "name": "영천시법원건너",
        "lat": 35.969499,
        "lng": 128.930465
      },
      {
        "id": "570044",
        "name": "문내주공아파트",
        "lat": 35.971637,
        "lng": 128.930362
      },
      {
        "id": "570045",
        "name": "영천중학교.중앙동주민센터앞",
        "lat": 35.973414,
        "lng": 128.929119
      },
      {
        "id": "570046",
        "name": "영천중학교건너",
        "lat": 35.974851,
        "lng": 128.931083
      },
      {
        "id": "570047",
        "name": "한국국토정보공사영천지사앞",
        "lat": 35.974643,
        "lng": 128.932796
      },
      {
        "id": "710684",
        "name": "문외LH센트럴타운(동측앞)",
        "lat": 35.972906,
        "lng": 128.934103
      },
      {
        "id": "570053",
        "name": "시청뒷편",
        "lat": 35.972997,
        "lng": 128.93709
      },
      {
        "id": "570054",
        "name": "야사주공2차아파트앞",
        "lat": 35.974576,
        "lng": 128.940299
      },
      {
        "id": "570055",
        "name": "영동새마을금고2지점(동부동주민센터)",
        "lat": 35.975323,
        "lng": 128.942002
      },
      {
        "id": "570056",
        "name": "야사신주공아파트건너",
        "lat": 35.976485,
        "lng": 128.944813
      },
      {
        "id": "570057",
        "name": "영동고등학교건너",
        "lat": 35.977232,
        "lng": 128.94655
      },
      {
        "id": "570058",
        "name": "망정네거리",
        "lat": 35.975635,
        "lng": 128.947786
      },
      {
        "id": "570059",
        "name": "청호아파트건너",
        "lat": 35.975522,
        "lng": 128.950332
      },
      {
        "id": "710681",
        "name": "제이병원 건너",
        "lat": 35.97702,
        "lng": 128.953729
      },
      {
        "id": "570063",
        "name": "대일빌라건너",
        "lat": 35.979098,
        "lng": 128.953279
      },
      {
        "id": "570064",
        "name": "망정휴먼시아5단지아파트",
        "lat": 35.98283,
        "lng": 128.952519
      },
      {
        "id": "570065",
        "name": "전경부대건너",
        "lat": 35.985289,
        "lng": 128.952014
      },
      {
        "id": "570066",
        "name": "창신아파트건너(우로지앞)",
        "lat": 35.985997,
        "lng": 128.954471
      },
      {
        "id": "570067",
        "name": "갑을공단(화신건너)",
        "lat": 35.986458,
        "lng": 128.959882
      },
      {
        "id": "570068",
        "name": "언하동(조교방면)",
        "lat": 35.98455,
        "lng": 128.962978
      },
      {
        "id": "570069",
        "name": "동부초등학교",
        "lat": 35.97798,
        "lng": 128.962033
      },
      {
        "id": "570070",
        "name": "소방서입구",
        "lat": 35.976843,
        "lng": 128.956584
      },
      {
        "id": "570025",
        "name": "청호아파트앞",
        "lat": 35.975677,
        "lng": 128.950181
      },
      {
        "id": "570013",
        "name": "새야사시장앞(망정주공건너)",
        "lat": 35.973364,
        "lng": 128.948384
      },
      {
        "id": "570014",
        "name": "우방아파트앞",
        "lat": 35.971318,
        "lng": 128.949497
      },
      {
        "id": "571715",
        "name": "미소지움2차",
        "lat": 35.96671,
        "lng": 128.947559
      },
      {
        "id": "571714",
        "name": "미소지움1차",
        "lat": 35.966396,
        "lng": 128.943852
      },
      {
        "id": "571711",
        "name": "e편한세상",
        "lat": 35.964173,
        "lng": 128.943977
      },
      {
        "id": "571760",
        "name": "롯데시네마건너",
        "lat": 35.963688,
        "lng": 128.940845
      },
      {
        "id": "570072",
        "name": "시장사거리(영천역방면)",
        "lat": 35.963014,
        "lng": 128.9389
      },
      {
        "id": "570073",
        "name": "영천우체국.영천역",
        "lat": 35.960952,
        "lng": 128.939074
      },
      {
        "id": "570074",
        "name": "영천전화국건너",
        "lat": 35.961595,
        "lng": 128.936931
      },
      {
        "id": "570075",
        "name": "중앙농민상담소건너",
        "lat": 35.962932,
        "lng": 128.934747
      },
      {
        "id": "570076",
        "name": "손한방병원건너",
        "lat": 35.962673,
        "lng": 128.931845
      },
      {
        "id": "570077",
        "name": "영풍한의원",
        "lat": 35.961592,
        "lng": 128.929553
      },
      {
        "id": "570078",
        "name": "영천버스터미널건너",
        "lat": 35.961106,
        "lng": 128.92713
      },
      {
        "id": "570079",
        "name": "경주세무서영천지서건너",
        "lat": 35.962513,
        "lng": 128.924554
      },
      {
        "id": "570973",
        "name": "영천여중",
        "lat": 35.964543,
        "lng": 128.920695
      },
      {
        "id": "571262",
        "name": "북영천역.향군회관",
        "lat": 35.96548,
        "lng": 128.918146
      },
      {
        "id": "571263",
        "name": "영천여고건너",
        "lat": 35.963502,
        "lng": 128.919578
      },
      {
        "id": "570102",
        "name": "오수동.쌍계마을입구(금호방면)",
        "lat": 35.961074,
        "lng": 128.916033
      },
      {
        "id": "710708",
        "name": "영천영대병원",
        "lat": 35.957816,
        "lng": 128.912875
      }
    ]
  },
  "555": {
    "routeid": "YCB357000440",
    "type": "간선버스",
    "stops": [
      {
        "id": "570021",
        "name": "창신아파트앞",
        "lat": 35.986265,
        "lng": 128.955165
      },
      {
        "id": "570022",
        "name": "전경부대앞",
        "lat": 35.985351,
        "lng": 128.95155
      },
      {
        "id": "570023",
        "name": "한신더휴영천퍼스트.세왕금속",
        "lat": 35.983007,
        "lng": 128.952124
      },
      {
        "id": "710680",
        "name": "보성스타팰리스",
        "lat": 35.980008,
        "lng": 128.952772
      },
      {
        "id": "570024",
        "name": "대일빌라입구",
        "lat": 35.978252,
        "lng": 128.953094
      },
      {
        "id": "571752",
        "name": "제이병원",
        "lat": 35.976654,
        "lng": 128.953485
      },
      {
        "id": "570025",
        "name": "청호아파트앞",
        "lat": 35.975677,
        "lng": 128.950181
      },
      {
        "id": "571478",
        "name": "영천고등학교건너",
        "lat": 35.973766,
        "lng": 128.944713
      },
      {
        "id": "571479",
        "name": "주공1차아파트앞",
        "lat": 35.97247,
        "lng": 128.941833
      },
      {
        "id": "570039",
        "name": "영천시청.영천축산농협앞",
        "lat": 35.971512,
        "lng": 128.93977
      },
      {
        "id": "570071",
        "name": "영천공설시장앞",
        "lat": 35.965162,
        "lng": 128.938702
      },
      {
        "id": "570087",
        "name": "영천농협본점",
        "lat": 35.963531,
        "lng": 128.93645
      },
      {
        "id": "570076",
        "name": "손한방병원건너",
        "lat": 35.962673,
        "lng": 128.931845
      },
      {
        "id": "570077",
        "name": "영풍한의원",
        "lat": 35.961592,
        "lng": 128.929553
      },
      {
        "id": "570078",
        "name": "영천버스터미널건너",
        "lat": 35.961106,
        "lng": 128.92713
      },
      {
        "id": "570079",
        "name": "경주세무서영천지서건너",
        "lat": 35.962513,
        "lng": 128.924554
      },
      {
        "id": "570101",
        "name": "영천여고건너(주유소앞)",
        "lat": 35.963072,
        "lng": 128.921962
      },
      {
        "id": "570102",
        "name": "오수동.쌍계마을입구(금호방면)",
        "lat": 35.961074,
        "lng": 128.916033
      },
      {
        "id": "570103",
        "name": "오수동e마트",
        "lat": 35.957745,
        "lng": 128.911513
      },
      {
        "id": "570104",
        "name": "영천경찰서",
        "lat": 35.951417,
        "lng": 128.906562
      },
      {
        "id": "570105",
        "name": "신월리 입구 건너",
        "lat": 35.943914,
        "lng": 128.904132
      },
      {
        "id": "570106",
        "name": "윤성아파트앞",
        "lat": 35.941292,
        "lng": 128.899515
      },
      {
        "id": "710709",
        "name": "포산장미아파트 건너",
        "lat": 35.935288,
        "lng": 128.885576
      },
      {
        "id": "570107",
        "name": "냉천리(금호방면)",
        "lat": 35.934545,
        "lng": 128.882958
      },
      {
        "id": "570108",
        "name": "금호초등학교",
        "lat": 35.933924,
        "lng": 128.881206
      },
      {
        "id": "570109",
        "name": "금호읍사무소",
        "lat": 35.93245,
        "lng": 128.877515
      },
      {
        "id": "570110",
        "name": "금호시장앞",
        "lat": 35.931559,
        "lng": 128.873444
      },
      {
        "id": "570111",
        "name": "금호터미널건너",
        "lat": 35.930631,
        "lng": 128.869384
      },
      {
        "id": "570112",
        "name": "금호역",
        "lat": 35.930322,
        "lng": 128.867814
      },
      {
        "id": "571576",
        "name": "계당리(동일금속)",
        "lat": 35.929026,
        "lng": 128.862183
      },
      {
        "id": "652443",
        "name": "계당2리(하양방향)",
        "lat": 35.926952,
        "lng": 128.856174
      },
      {
        "id": "609100",
        "name": "계당초교입구",
        "lat": 35.925662,
        "lng": 128.852444
      },
      {
        "id": "609000",
        "name": "시천교(하양방향)",
        "lat": 35.923601,
        "lng": 128.846463
      },
      {
        "id": "608900",
        "name": "부림요양병원",
        "lat": 35.922542,
        "lng": 128.843237
      },
      {
        "id": "608700",
        "name": "용천입구(경산방향)",
        "lat": 35.920158,
        "lng": 128.838895
      },
      {
        "id": "652419",
        "name": "동서오거리(하양방향)",
        "lat": 35.919357,
        "lng": 128.83321
      },
      {
        "id": "606600",
        "name": "하양청구2차타운 건너",
        "lat": 35.917813,
        "lng": 128.82843
      },
      {
        "id": "637140",
        "name": "하양코아루아파트",
        "lat": 35.917562,
        "lng": 128.825978
      },
      {
        "id": "602200",
        "name": "하양한전 건너",
        "lat": 35.916773,
        "lng": 128.822737
      },
      {
        "id": "652418",
        "name": "하양시장",
        "lat": 35.914882,
        "lng": 128.820838
      },
      {
        "id": "601900",
        "name": "하양초등학교 건너",
        "lat": 35.913239,
        "lng": 128.81838
      },
      {
        "id": "606300",
        "name": "하양역 건너",
        "lat": 35.91045,
        "lng": 128.815115
      },
      {
        "id": "607000",
        "name": "하양시외버스터미널 건너",
        "lat": 35.909237,
        "lng": 128.813686
      },
      {
        "id": "601700",
        "name": "대구가톨릭대학교",
        "lat": 35.907357,
        "lng": 128.811367
      },
      {
        "id": "613800",
        "name": "부호리",
        "lat": 35.900864,
        "lng": 128.803943
      },
      {
        "id": "601500",
        "name": "경일·호산대학교(대구방향)",
        "lat": 35.900265,
        "lng": 128.801819
      },
      {
        "id": "616500",
        "name": "은호1리국군대구병원",
        "lat": 35.896945,
        "lng": 128.790005
      },
      {
        "id": "601300",
        "name": "은호2리(대구방향)",
        "lat": 35.892958,
        "lng": 128.783049
      },
      {
        "id": "613900",
        "name": "남하2리(대구방향)",
        "lat": 35.889744,
        "lng": 128.779466
      },
      {
        "id": "601100",
        "name": "청천초교",
        "lat": 35.883866,
        "lng": 128.773909
      },
      {
        "id": "600800",
        "name": "청천역(대구방향)",
        "lat": 35.880328,
        "lng": 128.766329
      },
      {
        "id": "600600",
        "name": "청천주유소",
        "lat": 35.878928,
        "lng": 128.763181
      },
      {
        "id": "600500",
        "name": "청천리(대구방향)",
        "lat": 35.876511,
        "lng": 128.757807
      },
      {
        "id": "125500",
        "name": "사복동입구교차로",
        "lat": 35.872306,
        "lng": 128.748619
      },
      {
        "id": "119600",
        "name": "대림육교1",
        "lat": 35.872701,
        "lng": 128.741879
      },
      {
        "id": "119500",
        "name": "안심역(5번출구)",
        "lat": 35.87168,
        "lng": 128.734633
      },
      {
        "id": "119200",
        "name": "송정삼거리3",
        "lat": 35.87162,
        "lng": 128.732539
      },
      {
        "id": "119100",
        "name": "녹원맨션",
        "lat": 35.871824,
        "lng": 128.729593
      },
      {
        "id": "118900",
        "name": "동부경찰서앞",
        "lat": 35.871933,
        "lng": 128.72329
      },
      {
        "id": "118700",
        "name": "동부고교앞",
        "lat": 35.872048,
        "lng": 128.717148
      },
      {
        "id": "139900",
        "name": "안심지구대앞",
        "lat": 35.872157,
        "lng": 128.712187
      },
      {
        "id": "117900",
        "name": "대구파라곤프레스티지아파트",
        "lat": 35.872512,
        "lng": 128.707771
      },
      {
        "id": "117800",
        "name": "반야월시장2",
        "lat": 35.872943,
        "lng": 128.703736
      },
      {
        "id": "117600",
        "name": "율하교동편2",
        "lat": 35.873409,
        "lng": 128.699842
      },
      {
        "id": "115400",
        "name": "정동고등학교앞",
        "lat": 35.873789,
        "lng": 128.694632
      },
      {
        "id": "115200",
        "name": "LG물류센터앞",
        "lat": 35.874238,
        "lng": 128.689516
      },
      {
        "id": "114600",
        "name": "용계삼거리1",
        "lat": 35.875494,
        "lng": 128.684734
      },
      {
        "id": "710725",
        "name": "강변동서마을건너",
        "lat": 35.875316,
        "lng": 128.678844
      },
      {
        "id": "710726",
        "name": "은하타운앞",
        "lat": 35.875709,
        "lng": 128.674576
      },
      {
        "id": "114200",
        "name": "우방강촌마을건너",
        "lat": 35.876754,
        "lng": 128.66939
      },
      {
        "id": "128700",
        "name": "화랑교2",
        "lat": 35.877365,
        "lng": 128.662372
      },
      {
        "id": "114000",
        "name": "망우당공원앞",
        "lat": 35.876075,
        "lng": 128.655923
      },
      {
        "id": "514400",
        "name": "청기와주유소건너",
        "lat": 35.878057,
        "lng": 128.648114
      },
      {
        "id": "514500",
        "name": "효목네거리3",
        "lat": 35.877398,
        "lng": 128.646229
      },
      {
        "id": "515200",
        "name": "한전동대구지사",
        "lat": 35.8746,
        "lng": 128.641266
      },
      {
        "id": "515000",
        "name": "수성도서관건너",
        "lat": 35.873016,
        "lng": 128.637868
      },
      {
        "id": "134100",
        "name": "효신초등학교앞",
        "lat": 35.871611,
        "lng": 128.633831
      },
      {
        "id": "514600",
        "name": "더샵디어엘로아파트",
        "lat": 35.868929,
        "lng": 128.631401
      },
      {
        "id": "514100",
        "name": "동대구역환승센터건너",
        "lat": 35.877329,
        "lng": 128.630162
      },
      {
        "id": "515700",
        "name": "경북아파트앞(신천동)",
        "lat": 35.87642,
        "lng": 128.632745
      },
      {
        "id": "515900",
        "name": "팔공문화센터건너",
        "lat": 35.874354,
        "lng": 128.634264
      },
      {
        "id": "514900",
        "name": "수성도서관앞",
        "lat": 35.872678,
        "lng": 128.638171
      },
      {
        "id": "515100",
        "name": "한전동대구지사건너",
        "lat": 35.874158,
        "lng": 128.641357
      },
      {
        "id": "523400",
        "name": "청기와주유소앞",
        "lat": 35.87743,
        "lng": 128.647835
      },
      {
        "id": "541900",
        "name": "동문고등학교앞",
        "lat": 35.878072,
        "lng": 128.650329
      },
      {
        "id": "523500",
        "name": "망우당공원건너",
        "lat": 35.875798,
        "lng": 128.657722
      },
      {
        "id": "128600",
        "name": "화랑교1",
        "lat": 35.876995,
        "lng": 128.663028
      },
      {
        "id": "114100",
        "name": "우방강촌마을앞",
        "lat": 35.876258,
        "lng": 128.669413
      },
      {
        "id": "114300",
        "name": "은하타운건너",
        "lat": 35.875239,
        "lng": 128.674617
      },
      {
        "id": "114500",
        "name": "강변동서마을앞",
        "lat": 35.874856,
        "lng": 128.678861
      },
      {
        "id": "126100",
        "name": "용계삼거리3",
        "lat": 35.875076,
        "lng": 128.684988
      },
      {
        "id": "115100",
        "name": "LG물류센터건너",
        "lat": 35.873988,
        "lng": 128.690296
      },
      {
        "id": "115300",
        "name": "정동고등학교건너",
        "lat": 35.873575,
        "lng": 128.694954
      },
      {
        "id": "117500",
        "name": "율하교동편1",
        "lat": 35.873243,
        "lng": 128.699348
      },
      {
        "id": "117700",
        "name": "반야월시장1",
        "lat": 35.872675,
        "lng": 128.704473
      },
      {
        "id": "118000",
        "name": "각산태영데시앙건너",
        "lat": 35.872109,
        "lng": 128.709709
      },
      {
        "id": "118100",
        "name": "안심지구대건너",
        "lat": 35.871972,
        "lng": 128.712521
      },
      {
        "id": "118600",
        "name": "동부고교건너",
        "lat": 35.871889,
        "lng": 128.717903
      },
      {
        "id": "118800",
        "name": "동부경찰서건너",
        "lat": 35.871777,
        "lng": 128.722578
      },
      {
        "id": "119000",
        "name": "신서신일해피트리아파트",
        "lat": 35.871667,
        "lng": 128.728626
      },
      {
        "id": "119300",
        "name": "송정삼거리4",
        "lat": 35.871498,
        "lng": 128.732254
      },
      {
        "id": "119400",
        "name": "안심역(4번출구)",
        "lat": 35.871449,
        "lng": 128.734988
      },
      {
        "id": "119700",
        "name": "대림육교2",
        "lat": 35.87226,
        "lng": 128.742794
      },
      {
        "id": "125400",
        "name": "사복동입구교차로건너",
        "lat": 35.871923,
        "lng": 128.747691
      },
      {
        "id": "511070",
        "name": "대구한의대병원역",
        "lat": 35.872246,
        "lng": 128.750414
      },
      {
        "id": "600400",
        "name": "숙천동 건너",
        "lat": 35.876286,
        "lng": 128.757758
      },
      {
        "id": "600700",
        "name": "청천주유소 건너",
        "lat": 35.878768,
        "lng": 128.763338
      },
      {
        "id": "571641",
        "name": "청천역(하양방향)",
        "lat": 35.879862,
        "lng": 128.765831
      },
      {
        "id": "601000",
        "name": "청천초교 건너",
        "lat": 35.883543,
        "lng": 128.773824
      },
      {
        "id": "601200",
        "name": "남하2리(하양방향)",
        "lat": 35.889348,
        "lng": 128.779491
      },
      {
        "id": "601400",
        "name": "은호2리(하양방향)",
        "lat": 35.89309,
        "lng": 128.783578
      },
      {
        "id": "616400",
        "name": "은호1리국군대구병원 건너",
        "lat": 35.896859,
        "lng": 128.790324
      },
      {
        "id": "613700",
        "name": "부호역",
        "lat": 35.90028,
        "lng": 128.802764
      },
      {
        "id": "601800",
        "name": "대구가톨릭대학교 건너",
        "lat": 35.908161,
        "lng": 128.812737
      },
      {
        "id": "652374",
        "name": "하양시외버스터미널",
        "lat": 35.909782,
        "lng": 128.814585
      },
      {
        "id": "616800",
        "name": "하양역",
        "lat": 35.910844,
        "lng": 128.815839
      },
      {
        "id": "602000",
        "name": "하양초등학교",
        "lat": 35.912736,
        "lng": 128.818003
      },
      {
        "id": "637100",
        "name": "하양시장 건너",
        "lat": 35.914922,
        "lng": 128.821216
      },
      {
        "id": "602100",
        "name": "하양한전",
        "lat": 35.916965,
        "lng": 128.823423
      },
      {
        "id": "607100",
        "name": "하양청구2차타운",
        "lat": 35.917413,
        "lng": 128.827465
      },
      {
        "id": "652422",
        "name": "동서오거리(금호방향)",
        "lat": 35.919226,
        "lng": 128.833251
      },
      {
        "id": "652350",
        "name": "용천입구(영천방향)",
        "lat": 35.920045,
        "lng": 128.83892
      },
      {
        "id": "608800",
        "name": "부림요양병원 건너",
        "lat": 35.922398,
        "lng": 128.843206
      },
      {
        "id": "617000",
        "name": "시천교(금호방향)",
        "lat": 35.923541,
        "lng": 128.846708
      },
      {
        "id": "617100",
        "name": "계당초교입구건너",
        "lat": 35.925467,
        "lng": 128.852234
      },
      {
        "id": "609200",
        "name": "용천2리(금호방향)",
        "lat": 35.926726,
        "lng": 128.855936
      },
      {
        "id": "570113",
        "name": "덕성리동일금속",
        "lat": 35.929163,
        "lng": 128.863516
      },
      {
        "id": "570114",
        "name": "금호역건너",
        "lat": 35.930172,
        "lng": 128.867883
      },
      {
        "id": "570115",
        "name": "금호터미널",
        "lat": 35.93058,
        "lng": 128.869721
      },
      {
        "id": "570116",
        "name": "금호시장건너",
        "lat": 35.931328,
        "lng": 128.873217
      },
      {
        "id": "570117",
        "name": "금호읍사무소건너",
        "lat": 35.932613,
        "lng": 128.878062
      },
      {
        "id": "570118",
        "name": "냉천2리회관.금호초등건너",
        "lat": 35.934075,
        "lng": 128.881947
      },
      {
        "id": "570119",
        "name": "냉천리(영천방면)",
        "lat": 35.934683,
        "lng": 128.884809
      },
      {
        "id": "570120",
        "name": "KC피드",
        "lat": 35.938743,
        "lng": 128.893758
      },
      {
        "id": "570121",
        "name": "윤성아파트건너",
        "lat": 35.940745,
        "lng": 128.898837
      },
      {
        "id": "570122",
        "name": "신월리입구",
        "lat": 35.943456,
        "lng": 128.904032
      },
      {
        "id": "570123",
        "name": "효사랑요양병원",
        "lat": 35.949267,
        "lng": 128.90579
      },
      {
        "id": "570124",
        "name": "영천경찰서건너",
        "lat": 35.951437,
        "lng": 128.906983
      },
      {
        "id": "570125",
        "name": "영대병원",
        "lat": 35.958758,
        "lng": 128.912978
      },
      {
        "id": "570126",
        "name": "오수동.쌍계마을입구(영천방면)",
        "lat": 35.960629,
        "lng": 128.915668
      },
      {
        "id": "570127",
        "name": "영천여고앞",
        "lat": 35.96292,
        "lng": 128.921016
      },
      {
        "id": "570038",
        "name": "경주세무서영천지서앞",
        "lat": 35.962458,
        "lng": 128.924241
      },
      {
        "id": "570001",
        "name": "영천버스터미널앞",
        "lat": 35.960846,
        "lng": 128.927512
      },
      {
        "id": "570002",
        "name": "손한방병원",
        "lat": 35.962351,
        "lng": 128.931547
      },
      {
        "id": "570098",
        "name": "대구은행건너",
        "lat": 35.963312,
        "lng": 128.935064
      },
      {
        "id": "570099",
        "name": "영천공설시장(영천신협 유명약국)",
        "lat": 35.9634,
        "lng": 128.938458
      },
      {
        "id": "570007",
        "name": "영천공설시장건너",
        "lat": 35.965071,
        "lng": 128.939101
      },
      {
        "id": "570008",
        "name": "영동교(시청방향)",
        "lat": 35.96633,
        "lng": 128.939042
      },
      {
        "id": "570009",
        "name": "영천시청.영천축산농협건너",
        "lat": 35.97112,
        "lng": 128.939494
      },
      {
        "id": "570010",
        "name": "주공1차아파트건너",
        "lat": 35.972063,
        "lng": 128.941324
      },
      {
        "id": "570011",
        "name": "동부동사무소 입구건너",
        "lat": 35.973248,
        "lng": 128.943869
      },
      {
        "id": "570012",
        "name": "영천고.문화아파트",
        "lat": 35.974088,
        "lng": 128.94593
      },
      {
        "id": "570059",
        "name": "청호아파트건너",
        "lat": 35.975522,
        "lng": 128.950332
      },
      {
        "id": "710681",
        "name": "제이병원 건너",
        "lat": 35.97702,
        "lng": 128.953729
      },
      {
        "id": "570063",
        "name": "대일빌라건너",
        "lat": 35.979098,
        "lng": 128.953279
      },
      {
        "id": "570064",
        "name": "망정휴먼시아5단지아파트",
        "lat": 35.98283,
        "lng": 128.952519
      },
      {
        "id": "570065",
        "name": "전경부대건너",
        "lat": 35.985289,
        "lng": 128.952014
      },
      {
        "id": "570066",
        "name": "창신아파트건너(우로지앞)",
        "lat": 35.985997,
        "lng": 128.954471
      }
    ]
  },
  "750": {
    "routeid": "YCB357000442",
    "type": "지선버스",
    "stops": [
      {
        "id": "571571",
        "name": "영천터미널",
        "lat": 35.96051,
        "lng": 128.927914
      },
      {
        "id": "570079",
        "name": "경주세무서영천지서건너",
        "lat": 35.962513,
        "lng": 128.924554
      },
      {
        "id": "570082",
        "name": "서문육거리",
        "lat": 35.963659,
        "lng": 128.925246
      },
      {
        "id": "570083",
        "name": "성내동",
        "lat": 35.965165,
        "lng": 128.92822
      },
      {
        "id": "570084",
        "name": "중앙사거리",
        "lat": 35.966231,
        "lng": 128.930307
      },
      {
        "id": "570085",
        "name": "영천문화원",
        "lat": 35.967492,
        "lng": 128.932555
      },
      {
        "id": "570086",
        "name": "시청오거리(경북신경외과건너)",
        "lat": 35.97004,
        "lng": 128.937195
      },
      {
        "id": "570071",
        "name": "영천공설시장앞",
        "lat": 35.965162,
        "lng": 128.938702
      },
      {
        "id": "570087",
        "name": "영천농협본점",
        "lat": 35.963531,
        "lng": 128.93645
      },
      {
        "id": "570088",
        "name": "영천초등학교앞",
        "lat": 35.960721,
        "lng": 128.932855
      },
      {
        "id": "570089",
        "name": "한전영천지사앞",
        "lat": 35.956655,
        "lng": 128.931743
      },
      {
        "id": "570090",
        "name": "주남네거리(sk주유소앞)",
        "lat": 35.953717,
        "lng": 128.930899
      },
      {
        "id": "570091",
        "name": "성남여중고건너",
        "lat": 35.94853,
        "lng": 128.929384
      },
      {
        "id": "570092",
        "name": "도동삼거리앞",
        "lat": 35.943571,
        "lng": 128.928455
      },
      {
        "id": "571483",
        "name": "한약단지앞",
        "lat": 35.942938,
        "lng": 128.931127
      },
      {
        "id": "571285",
        "name": "남부동주민센터 건너",
        "lat": 35.941865,
        "lng": 128.933403
      },
      {
        "id": "571484",
        "name": "도남입구",
        "lat": 35.939404,
        "lng": 128.937388
      },
      {
        "id": "571334",
        "name": "영천IC입구(작산방면)",
        "lat": 35.938925,
        "lng": 128.944969
      },
      {
        "id": "571336",
        "name": "영천가축시장",
        "lat": 35.94049,
        "lng": 128.949043
      },
      {
        "id": "571337",
        "name": "작산동(북안방면)",
        "lat": 35.941766,
        "lng": 128.952449
      },
      {
        "id": "571341",
        "name": "남부초등학교건너",
        "lat": 35.940749,
        "lng": 128.956543
      },
      {
        "id": "571342",
        "name": "유상입구(유상방면)",
        "lat": 35.939365,
        "lng": 128.970381
      },
      {
        "id": "571358",
        "name": "유하리입구(북안방면)",
        "lat": 35.93915,
        "lng": 128.972742
      },
      {
        "id": "571359",
        "name": "송포리",
        "lat": 35.936694,
        "lng": 128.981564
      },
      {
        "id": "571541",
        "name": "반정1리입구마을",
        "lat": 35.934945,
        "lng": 128.987516
      },
      {
        "id": "571464",
        "name": "반정1리(임포방면)",
        "lat": 35.931928,
        "lng": 128.991756
      },
      {
        "id": "571360",
        "name": "반정3리(임포방면)",
        "lat": 35.927348,
        "lng": 128.999263
      },
      {
        "id": "571361",
        "name": "파라다이스모텔",
        "lat": 35.92285,
        "lng": 129.004139
      },
      {
        "id": "571362",
        "name": "행복마을빌라",
        "lat": 35.92103,
        "lng": 129.006696
      },
      {
        "id": "571439",
        "name": "임포정류장 앞",
        "lat": 35.918577,
        "lng": 129.00872
      },
      {
        "id": "571440",
        "name": "행복마을빌라건너",
        "lat": 35.921046,
        "lng": 129.00683
      },
      {
        "id": "571441",
        "name": "파라다이스모텔건너",
        "lat": 35.922813,
        "lng": 129.004351
      },
      {
        "id": "571462",
        "name": "반정3리(영천방면)",
        "lat": 35.928726,
        "lng": 128.998212
      },
      {
        "id": "571463",
        "name": "반정1리(영천방면)",
        "lat": 35.932269,
        "lng": 128.992124
      },
      {
        "id": "571465",
        "name": "송포1리.마을회관앞",
        "lat": 35.936533,
        "lng": 128.983247
      },
      {
        "id": "571466",
        "name": "유하리입구(영천방면)",
        "lat": 35.939223,
        "lng": 128.972691
      },
      {
        "id": "571357",
        "name": "조암마을",
        "lat": 35.939749,
        "lng": 128.971128
      },
      {
        "id": "571467",
        "name": "남부초등학교",
        "lat": 35.940709,
        "lng": 128.956788
      },
      {
        "id": "571468",
        "name": "작산동(도동방면)",
        "lat": 35.942036,
        "lng": 128.953125
      },
      {
        "id": "571470",
        "name": "우시장(진각사입구.영천희망원)",
        "lat": 35.940061,
        "lng": 128.948154
      },
      {
        "id": "571471",
        "name": "영천IC입구(도동방면)",
        "lat": 35.939179,
        "lng": 128.943759
      },
      {
        "id": "571472",
        "name": "남부동주민센터",
        "lat": 35.939775,
        "lng": 128.937143
      },
      {
        "id": "571473",
        "name": "남부동주민센터 앞",
        "lat": 35.941957,
        "lng": 128.933712
      },
      {
        "id": "571474",
        "name": "도동삼거리",
        "lat": 35.943389,
        "lng": 128.930002
      },
      {
        "id": "570093",
        "name": "성남여중고앞",
        "lat": 35.94849,
        "lng": 128.929541
      },
      {
        "id": "570094",
        "name": "주남네거리(sk주유소건너)",
        "lat": 35.953385,
        "lng": 128.930949
      },
      {
        "id": "570095",
        "name": "한전영천지사건너",
        "lat": 35.956785,
        "lng": 128.931938
      },
      {
        "id": "570096",
        "name": "영천초등학교건너",
        "lat": 35.961206,
        "lng": 128.933234
      },
      {
        "id": "570098",
        "name": "대구은행건너",
        "lat": 35.963312,
        "lng": 128.935064
      },
      {
        "id": "570099",
        "name": "영천공설시장(영천신협 유명약국)",
        "lat": 35.9634,
        "lng": 128.938458
      },
      {
        "id": "570007",
        "name": "영천공설시장건너",
        "lat": 35.965071,
        "lng": 128.939101
      },
      {
        "id": "570008",
        "name": "영동교(시청방향)",
        "lat": 35.96633,
        "lng": 128.939042
      },
      {
        "id": "570040",
        "name": "시청오거리(경북신경외과앞)",
        "lat": 35.970412,
        "lng": 128.937559
      },
      {
        "id": "570041",
        "name": "영천보건소",
        "lat": 35.967902,
        "lng": 128.932886
      },
      {
        "id": "570036",
        "name": "숭렬공원",
        "lat": 35.965916,
        "lng": 128.929136
      },
      {
        "id": "570037",
        "name": "평생학습관",
        "lat": 35.964657,
        "lng": 128.926778
      },
      {
        "id": "570038",
        "name": "경주세무서영천지서앞",
        "lat": 35.962458,
        "lng": 128.924241
      },
      {
        "id": "710682",
        "name": "영천터미널",
        "lat": 35.96074,
        "lng": 128.927099
      }
    ]
  },
  "760-1": {
    "routeid": "YCB357000443",
    "type": "지선버스",
    "stops": [
      {
        "id": "571571",
        "name": "영천터미널",
        "lat": 35.96051,
        "lng": 128.927914
      },
      {
        "id": "570079",
        "name": "경주세무서영천지서건너",
        "lat": 35.962513,
        "lng": 128.924554
      },
      {
        "id": "570082",
        "name": "서문육거리",
        "lat": 35.963659,
        "lng": 128.925246
      },
      {
        "id": "570083",
        "name": "성내동",
        "lat": 35.965165,
        "lng": 128.92822
      },
      {
        "id": "570084",
        "name": "중앙사거리",
        "lat": 35.966231,
        "lng": 128.930307
      },
      {
        "id": "570085",
        "name": "영천문화원",
        "lat": 35.967492,
        "lng": 128.932555
      },
      {
        "id": "570086",
        "name": "시청오거리(경북신경외과건너)",
        "lat": 35.97004,
        "lng": 128.937195
      },
      {
        "id": "570071",
        "name": "영천공설시장앞",
        "lat": 35.965162,
        "lng": 128.938702
      },
      {
        "id": "570087",
        "name": "영천농협본점",
        "lat": 35.963531,
        "lng": 128.93645
      },
      {
        "id": "570088",
        "name": "영천초등학교앞",
        "lat": 35.960721,
        "lng": 128.932855
      },
      {
        "id": "570089",
        "name": "한전영천지사앞",
        "lat": 35.956655,
        "lng": 128.931743
      },
      {
        "id": "570090",
        "name": "주남네거리(sk주유소앞)",
        "lat": 35.953717,
        "lng": 128.930899
      },
      {
        "id": "570091",
        "name": "성남여중고건너",
        "lat": 35.94853,
        "lng": 128.929384
      },
      {
        "id": "570092",
        "name": "도동삼거리앞",
        "lat": 35.943571,
        "lng": 128.928455
      },
      {
        "id": "571483",
        "name": "한약단지앞",
        "lat": 35.942938,
        "lng": 128.931127
      },
      {
        "id": "571285",
        "name": "남부동주민센터 건너",
        "lat": 35.941865,
        "lng": 128.933403
      },
      {
        "id": "571484",
        "name": "도남입구",
        "lat": 35.939404,
        "lng": 128.937388
      },
      {
        "id": "571334",
        "name": "영천IC입구(작산방면)",
        "lat": 35.938925,
        "lng": 128.944969
      },
      {
        "id": "571336",
        "name": "영천가축시장",
        "lat": 35.94049,
        "lng": 128.949043
      },
      {
        "id": "571337",
        "name": "작산동(북안방면)",
        "lat": 35.941766,
        "lng": 128.952449
      },
      {
        "id": "571341",
        "name": "남부초등학교건너",
        "lat": 35.940749,
        "lng": 128.956543
      },
      {
        "id": "571342",
        "name": "유상입구(유상방면)",
        "lat": 35.939365,
        "lng": 128.970381
      },
      {
        "id": "571358",
        "name": "유하리입구(북안방면)",
        "lat": 35.93915,
        "lng": 128.972742
      },
      {
        "id": "571359",
        "name": "송포리",
        "lat": 35.936694,
        "lng": 128.981564
      },
      {
        "id": "571541",
        "name": "반정1리입구마을",
        "lat": 35.934945,
        "lng": 128.987516
      },
      {
        "id": "571464",
        "name": "반정1리(임포방면)",
        "lat": 35.931928,
        "lng": 128.991756
      },
      {
        "id": "571360",
        "name": "반정3리(임포방면)",
        "lat": 35.927348,
        "lng": 128.999263
      },
      {
        "id": "571361",
        "name": "파라다이스모텔",
        "lat": 35.92285,
        "lng": 129.004139
      },
      {
        "id": "571362",
        "name": "행복마을빌라",
        "lat": 35.92103,
        "lng": 129.006696
      },
      {
        "id": "571363",
        "name": "임포정류장 건너",
        "lat": 35.918527,
        "lng": 129.008622
      },
      {
        "id": "571364",
        "name": "북안면사무소",
        "lat": 35.915493,
        "lng": 129.009769
      },
      {
        "id": "571365",
        "name": "고지주유소",
        "lat": 35.911488,
        "lng": 129.009914
      },
      {
        "id": "571366",
        "name": "고지삼거리(북안방면)",
        "lat": 35.908239,
        "lng": 129.010154
      },
      {
        "id": "571367",
        "name": "고지1리.마야요양원(북안방면)",
        "lat": 35.905471,
        "lng": 129.011472
      },
      {
        "id": "571368",
        "name": "고지1리(북안방면)",
        "lat": 35.902645,
        "lng": 129.012215
      },
      {
        "id": "571369",
        "name": "옥천리(상리방면)",
        "lat": 35.898935,
        "lng": 129.01149
      },
      {
        "id": "571370",
        "name": "도천1리(영광학교건너)",
        "lat": 35.89277,
        "lng": 129.013609
      },
      {
        "id": "571371",
        "name": "신리(상리방면)",
        "lat": 35.887551,
        "lng": 129.011096
      },
      {
        "id": "571372",
        "name": "신리공업단지입구",
        "lat": 35.885969,
        "lng": 129.008709
      },
      {
        "id": "571373",
        "name": "신대리(상리방면)",
        "lat": 35.883022,
        "lng": 129.004144
      },
      {
        "id": "571374",
        "name": "명주리(새배이)",
        "lat": 35.87959,
        "lng": 128.999772
      },
      {
        "id": "571392",
        "name": "들말(상리방면)",
        "lat": 35.877416,
        "lng": 128.997557
      },
      {
        "id": "571388",
        "name": "명주마을(명주교회앞)",
        "lat": 35.874384,
        "lng": 128.996194
      },
      {
        "id": "571378",
        "name": "명주농협",
        "lat": 35.872013,
        "lng": 128.994042
      },
      {
        "id": "571476",
        "name": "도유리",
        "lat": 35.87293,
        "lng": 128.985258
      },
      {
        "id": "571475",
        "name": "광능",
        "lat": 35.869892,
        "lng": 128.979605
      },
      {
        "id": "710691",
        "name": "나현길",
        "lat": 35.868129,
        "lng": 128.979564
      },
      {
        "id": "570621",
        "name": "북리(당리방면)",
        "lat": 35.866159,
        "lng": 128.98019
      },
      {
        "id": "570622",
        "name": "북리마을회관건너",
        "lat": 35.862336,
        "lng": 128.986042
      },
      {
        "id": "570623",
        "name": "북리입구마을(당리방면)",
        "lat": 35.86517,
        "lng": 128.98846
      },
      {
        "id": "571379",
        "name": "당1리입구(상리방면)",
        "lat": 35.864528,
        "lng": 128.992938
      },
      {
        "id": "571385",
        "name": "당2리(상리방면)",
        "lat": 35.859125,
        "lng": 128.992148
      },
      {
        "id": "571381",
        "name": "상리(상리방면)",
        "lat": 35.853196,
        "lng": 128.992477
      },
      {
        "id": "571383",
        "name": "상리회관",
        "lat": 35.851408,
        "lng": 128.991635
      },
      {
        "id": "571384",
        "name": "상리(영천방면)",
        "lat": 35.853181,
        "lng": 128.992593
      },
      {
        "id": "571380",
        "name": "당2리(영천방면)",
        "lat": 35.859046,
        "lng": 128.992285
      },
      {
        "id": "571660",
        "name": "당1리(당1리방면)",
        "lat": 35.862093,
        "lng": 128.995489
      },
      {
        "id": "571559",
        "name": "당1리경로당",
        "lat": 35.860639,
        "lng": 128.996554
      },
      {
        "id": "571661",
        "name": "당1리(영천방면)",
        "lat": 35.862132,
        "lng": 128.99559
      },
      {
        "id": "571386",
        "name": "당1리입구(북동마을)",
        "lat": 35.86475,
        "lng": 128.993176
      },
      {
        "id": "571387",
        "name": "명주농협건너",
        "lat": 35.872099,
        "lng": 128.994243
      },
      {
        "id": "571377",
        "name": "명주마을(명주교회건너)",
        "lat": 35.874534,
        "lng": 128.996402
      },
      {
        "id": "571394",
        "name": "들말(영천방면)",
        "lat": 35.877107,
        "lng": 128.997416
      },
      {
        "id": "571395",
        "name": "용계입구(영천방면)",
        "lat": 35.87931,
        "lng": 128.999671
      },
      {
        "id": "571396",
        "name": "신대리(영천방면)",
        "lat": 35.882936,
        "lng": 129.00417
      },
      {
        "id": "571397",
        "name": "신리공업단지입구건너",
        "lat": 35.885822,
        "lng": 129.008644
      },
      {
        "id": "571398",
        "name": "신리(영천방면)",
        "lat": 35.887447,
        "lng": 129.011138
      },
      {
        "id": "571410",
        "name": "도천1리(영광학교앞)",
        "lat": 35.893106,
        "lng": 129.013745
      },
      {
        "id": "571417",
        "name": "옥천리(영천방면)",
        "lat": 35.898972,
        "lng": 129.011592
      },
      {
        "id": "571418",
        "name": "고지1리(영천방면)",
        "lat": 35.903446,
        "lng": 129.012238
      },
      {
        "id": "571419",
        "name": "고지1리.마야요양원(영천방면)",
        "lat": 35.905559,
        "lng": 129.011549
      },
      {
        "id": "571436",
        "name": "고지삼거리(영천방면)",
        "lat": 35.908149,
        "lng": 129.010436
      },
      {
        "id": "571437",
        "name": "고지주유소건너",
        "lat": 35.911222,
        "lng": 129.010012
      },